Store Number,Address,City,State,Zip Code,Phone Number,Fax Number,Email Address,Store Location,Store Hours,Latitude,Longitude
2,249 S HWY 101,SOLANA BEACH,CA,92075-1807,(858)481-1414,(858)481-1258,store0002@theupsstore.com,"1/4 MILE SOUTH OF LOMAS SANTA FE, 2 BLDGS NORTH OF CVS PHARMACY", Monday 8:00 AM-6:00 PM Tuesday 8:00 AM-6:00 PM Wednesday 8:00 AM-6:00 PM Thursday 8:00 AM-6:00 PM Friday 8:00 AM-6:00 PM Saturday 8:00 AM-4:00 PM ,32.9890296,-117.2711218
3,5580 LA JOLLA BLVD,LA JOLLA,CA,92037-7651,(858)459-4077,(858)459-3025,store0003@theupsstore.com,BIRDROCK AREA OF LA JOLLA NEXT TO FRENCH PASTRY SHOP, Monday 8:30 AM-6:30 PM Tuesday 8:30 AM-6:30 PM Wednesday 8:30 AM-6:30 PM Thursday 8:30 AM-6:30 PM Friday 8:30 AM-6:30 PM Saturday 10:00 AM-5:00 PM ,32.8134941,-117.2694497
5,2604-B EL CAMINO REAL,CARLSBAD,CA,92008-1214, (760)729-4961,(760)729-5127,store0005@theupsstore.com,IN SHOPPING CENTER WITH SMART & FINAL AND BOSTON MARKET,Monday 8:00 AM-6:00 PM Tuesday 8:00 AM-6:00 PM Wednesday 8:00 AM-6:00 PM Thursday 8:00 AM-6:00 PM Friday 8:00 AM-6:00 PM Saturday 9:00 AM-5:00 PM,33.176412,-117.3260431
6,9528 MIRAMAR RD,SAN DIEGO,CA,92126-4533, (858)566-6245,(858)566-2014,store0006@theupsstore.com,CORNER OF MIRAMAR ROAD AND BLACK MOUNTAIN ROAD,Monday 08:30 AM-07:00 PM Tuesday 08:30 AM-07:00 PM Wednesday 08:30 AM-07:00 PM Thursday 08:30 AM-07:00 PM Friday 08:30 AM-07:00 PM Saturday 09:30 AM-03:00 PM,32.8938981,-117.1227387
7,302 WASHINGTON ST,SAN DIEGO,CA,92103,(619)291-5678,(619)291-5688,store0007@theupsstore.com,"ON THE CORNER OF WASHINGTON & 3RD, ACROSS THE STREET FROM CVS", Monday 8:00 AM-7:00 PM Tuesday 8:00 AM-7:00 PM Wednesday 8:00 AM-7:00 PM Thursday 8:00 AM-7:00 PM Friday 8:00 AM-7:00 PM Saturday 9:00 AM-5:00 PM ,32.749992,-117.166203
8,5173 WARING RD,SAN DIEGO,CA,92120-2705,(619) 265-9393,(619) 265-1554,store0008@theupsstore.com,ALBERTSONS CENTER - 1 MILE NORTH OF HIGHWAY 8., Monday 08:30 AM-06:30 PM Tuesday 08:30 AM-06:30 PM Wednesday 08:30 AM-06:30 PM Thursday 08:30 AM-06:30 PM Friday 08:30 AM-06:30 PM Saturday 09:00 AM-05:00 PM ,32.7914454,-117.0818759
11,"25108 MARGUERITE PKWY, STE A",MISSION VIEJO,CA,92692,(949)837-6245,(949)837-7250,store0011@theupsstore.com,RALPHS SHOPPING CENTER AT LA PAZ AND MARGUERITE, Monday 08:30 AM-06:30 PM Tuesday 08:30 AM-06:30 PM Wednesday 08:30 AM-06:30 PM Thursday 08:30 AM-06:30 PM Friday 08:30 AM-06:30 PM Saturday 09:00 AM-04:00 PM ,33.597648,-117.6577643
12,10573 W PICO BLVD,LOS ANGELES,CA,90064-2348, (310)474-7383,(310)474-7705,store0012@theupsstore.com,4 BLOCKS EAST OF OVERLAND,Monday 8:30 AM-6:30 PM Tuesday 8:30 AM-6:30 PM Wednesday 8:30 AM-6:30 PM Thursday 8:30 AM-6:30 PM Friday 8:30 AM-6:30 PM Saturday 10:00 AM-4:00 PM,34.0439853,-118.4214407
15,"7071 WARNER AVE, STE F",HUNTINGTON BEACH,CA,92647, (714)848-4375,(714)841-1542,store0015@theupsstore.com,STATER BROS SHOPPING CENTER - BETWEEN STATER BROS & LAMPOST PIZZA,Monday 08:00 AM-06:00 PM Tuesday 08:00 AM-06:00 PM Wednesday 08:00 AM-06:00 PM Thursday 08:00 AM-06:00 PM Friday 08:00 AM-06:00 PM Saturday 09:00 AM-05:00 PM,33.716754,-118.005652
18,1439 W CHAPMAN AVE,ORANGE,CA,92868,(714)634-0777,(714)634-1007,store0018@theupsstore.com,CROSS STREET OF MAIN & CHAPMAN IN RALPH COMPLEX, Monday 09:00 AM-06:30 PM Tuesday 09:00 AM-06:30 PM Wednesday 09:00 AM-06:30 PM Thursday 09:00 AM-06:30 PM Friday 09:00 AM-06:30 PM Saturday 09:30 AM-03:00 PM ,33.7879108,-117.8683371
20,7350 S TAMIAMI TRAIL,SARASOTA,FL,34231, (941)922-4321,(941)923-5254,store0020@theupsstore.com,LOCATED IN THE CORAL COVE MALL,Monday 9:00 AM-6:30 PM Tuesday 9:00 AM-6:30 PM Wednesday 9:00 AM-6:30 PM Thursday 9:00 AM-6:30 PM Friday 9:00 AM-6:30 PM Saturday 9:30 AM-5:00 PM,27.248375,-82.513394
23,27 WEST ANAPAMU ST,SANTA BARBARA,CA,93101,(805)962-0998,(805)965-3841,store0023@theupsstore.com,BETWEEN STATE AND CHAPALA STREET ON ANAPAMU, Monday 09:00 AM-06:00 PM Tuesday 09:00 AM-06:00 PM Wednesday 09:00 AM-06:00 PM Thursday 09:00 AM-06:00 PM Friday 09:00 AM-06:00 PM Saturday 10:00 AM-03:00 PM ,34.422364,-119.705115
25,205 E DIMOND BLVD,ANCHORAGE,AK,99515, (907)344-1211,(907)522-3198,store0025@theupsstore.com,"KINGS ROW AT CORNER OF DIMOND & KING ST, OPPOSITE TOYS R US",Monday 9:00 AM-7:00 PM Tuesday 9:00 AM-7:00 PM Wednesday 9:00 AM-7:00 PM Thursday 9:00 AM-7:00 PM Friday 9:00 AM-7:00 PM Saturday 9:00 AM-5:00 PM,61.1447864,-149.8779099
26,"25422 TRABUCO RD, STE 105",LAKE FOREST,CA,92630-2790,(949) 859-7193,(949) 859-7351,store0026@theupsstore.com,CORNER OF LAKE FOREST DR & TRABUCO RD IN THE RALPHS SHOPPING CTR, Monday 07:30 AM-06:00 PM Tuesday 07:30 AM-06:00 PM Wednesday 07:30 AM-06:00 PM Thursday 07:30 AM-06:00 PM Friday 07:30 AM-06:00 PM Saturday 09:00 AM-03:00 PM ,33.6490604,-117.6879742
28,"270 N EL CAMINO REAL, #F",ENCINITAS,CA,92024,(760)942-7147,(760)942-0426,store0028@theupsstore.com,CAMINO VILLAGE PLAZA (VONS SHOPPING CENTER), Monday 8:30 AM-6:00 PM Tuesday 8:30 AM-6:00 PM Wednesday 8:30 AM-6:00 PM Thursday 8:30 AM-6:00 PM Friday 8:30 AM-6:00 PM Saturday 9:00 AM-5:00 PM Sunday 11:00 AM-4:00 PM ,33.0518189,-117.2609455
32,14252 CULVER DR,IRVINE,CA,92604-0317,(949)559-9007,(949)559-5704,store0032@theupsstore.com,CULVER AND WALNUT - NEAR I-5, Monday 8:00 AM-7:00 PM Tuesday 8:00 AM-7:00 PM Wednesday 8:00 AM-7:00 PM Thursday 8:00 AM-7:00 PM Friday 8:00 AM-7:00 PM Saturday 9:00 AM-5:00 PM Sunday 12:00 PM-4:00 PM ,33.7074248,-117.7848903
33,"2303 N 44TH ST, STE 14",PHOENIX,AZ,85008-2442,(602)840-3020,(602)840-3024,store0033@theupsstore.com,NEAR THOMAS MALL AT NORTH EAST CORNER OF 44TH AND OAK, Monday 8:00 AM-6:00 PM Tuesday 8:00 AM-6:00 PM Wednesday 8:00 AM-6:00 PM Thursday 8:00 AM-6:00 PM Friday 8:00 AM-6:00 PM Saturday 9:00 AM-5:00 PM ,33.4729918,-111.9869466
38,"3370 N HAYDEN RD, STE 123",SCOTTSDALE,AZ,85251-6632,(480)947-1225,(480)481-0175,store0038@theupsstore.com,SW CORNER OF HAYDEN AND OSBORN, Monday 08:00 AM-06:00 PM Tuesday 08:00 AM-06:00 PM Wednesday 08:00 AM-06:00 PM Thursday 08:00 AM-06:00 PM Friday 08:00 AM-06:00 PM Saturday 09:00 AM-05:00 PM ,33.4866558,-111.9089498
39,"550 W BASELINE ROAD, STE 102",MESA,AZ,85210-2064, (480)964-1001,(480)964-1113,store0039@theupsstore.com,NWC COUNTRY CLUB ON BASELINE IN THE FRY'S PLAZA/FUEL CENTER,Monday 08:30 AM-07:00 PM Tuesday 08:30 AM-07:00 PM Wednesday 08:30 AM-07:00 PM Thursday 08:30 AM-07:00 PM Friday 08:30 AM-06:00 PM Saturday 09:00 AM-04:00 PM,33.379213,-111.842967
40,"1187 COAST VILLAGE RD, STE 1",MONTECITO,CA,93108,(805)969-5888,(805)969-1725,store0040@theupsstore.com,MIDDLE RD AND COAST VILLAGE - ACROSS FROM PEABODY'S, Monday 8:00 AM-6:00 PM Tuesday 8:00 AM-6:00 PM Wednesday 8:00 AM-6:00 PM Thursday 8:00 AM-6:00 PM Friday 8:00 AM-6:00 PM Saturday 10:00 AM-4:00 PM ,34.420667,-119.644981
41,"31878 DEL OBISPO, STE 118",SAN JUAN CAPISTRANO,CA,92675,(949)240-1131,(949)240-1213,store0041@theupsstore.com,IN THE MARSHALLS & RALPHS SHOPPING CENTER, Monday 8:00 AM-6:30 PM Tuesday 8:00 AM-6:30 PM Wednesday 8:00 AM-6:30 PM Thursday 8:00 AM-6:30 PM Friday 8:00 AM-6:30 PM Saturday 9:00 AM-4:00 PM ,33.4977898,-117.6601732
44,19528 VENTURA BLVD,TARZANA,CA,91356-2917,(818)343-4377,(818)343-5708,store0044@theupsstore.com,CAPRI PLAZA BETWEEN CORBIN AND TAMPA, Monday 8:00 AM-6:00 PM Tuesday 8:00 AM-6:00 PM Wednesday 8:00 AM-6:00 PM Thursday 8:00 AM-6:00 PM Friday 8:00 AM-6:00 PM Saturday 9:00 AM-5:00 PM ,34.165716,-118.5289375
45,"1350 BEVERLY RD, STE 115",MCLEAN,VA,22101,(703)448-8044,(703)448-8332,store0045@theupsstore.com,IN THE ASHBY BUILDING - NEAREST CROSS STREET IS ELM ST, Monday 08:30 AM-06:30 PM Tuesday 08:30 AM-06:30 PM Wednesday 08:30 AM-06:30 PM Thursday 08:30 AM-06:30 PM Friday 08:30 AM-06:30 PM Saturday 09:00 AM-05:00 PM ,38.937364,-77.178161
49,"4790 IRVINE BLVD, STE 105",IRVINE,CA,92620-1998,(714)730-5721,(714)730-0827,store0049@theupsstore.com,CORNER OF YALE AND IRVINE BLVD, Monday 08:00 AM-06:00 PM Tuesday 08:00 AM-06:00 PM Wednesday 08:00 AM-06:00 PM Thursday 08:00 AM-06:00 PM Friday 08:00 AM-06:00 PM Saturday 08:00 AM-04:00 PM ,33.714166,-117.760606
51,1819 POLK ST,SAN FRANCISCO,CA,94109,(415)441-4954,(415)441-3730,store0051@theupsstore.com,BETWEEN JACKSON AND WASHINGTON, Monday 8:30 AM-6:00 PM Tuesday 8:30 AM-6:00 PM Wednesday 8:30 AM-6:00 PM Thursday 8:30 AM-6:00 PM Friday 8:30 AM-6:00 PM Saturday 9:00 AM-4:30 PM Sunday 11:30 AM-4:00 PM ,37.7937395,-122.4213442
53,19785 W 12 MILE RD,SOUTHFIELD,MI,48076,(248)559-1690,(248)559-5884,store0053@theupsstore.com,SE CORNER OF 12 MILE & EVERGREEN IN THE EVERGREEN SHOPPING PLAZA, Monday 09:00 AM-07:00 PM Tuesday 09:00 AM-07:00 PM Wednesday 09:00 AM-07:00 PM Thursday 09:00 AM-07:00 PM Friday 09:00 AM-07:00 PM Saturday 09:00 AM-05:00 PM ,42.5019994,-83.2397107
54,"1120 HUFFMAN RD, STE 24",ANCHORAGE,AK,99515, (907)345-7311,(907)345-8570,store0054@theupsstore.com,AT OLD SEWARD AND HUFFMAN NEAR CARR'S,Monday 9:00 AM-7:00 PM Tuesday 9:00 AM-7:00 PM Wednesday 9:00 AM-7:00 PM Thursday 9:00 AM-7:00 PM Friday 9:00 AM-7:00 PM Saturday 9:00 AM-5:00 PM,61.1086317,-149.8611341
55,200 W 34TH AVE,ANCHORAGE,AK,99503-3969, (907)561-4410,(907)561-2415,store0055@theupsstore.com,IN DOVER CENTER AT CORNER OF 34TH AND C,Monday 9:00 AM-7:00 PM Tuesday 9:00 AM-7:00 PM Wednesday 9:00 AM-7:00 PM Thursday 9:00 AM-7:00 PM Friday 9:00 AM-7:00 PM Saturday 9:00 AM-5:00 PM,61.189147,-149.884838
56,2443 FILLMORE ST,SAN FRANCISCO,CA,94115,(415)922-6245,(415)922-0744,store0056@theupsstore.com,JACKSON AND FILLMORE - NEXT TO TULLY'S COFFEE, Monday 08:00 AM-06:30 PM Tuesday 08:00 AM-06:30 PM Wednesday 08:00 AM-06:30 PM Thursday 08:00 AM-06:30 PM Friday 08:00 AM-06:30 PM Saturday 09:00 AM-05:00 PM ,37.7922467,-122.4346546
57,4200 WISCONSIN AVE NW,WASHINGTON,DC,20016-2143,(202)363-8044,(202)363-0958,store0057@theupsstore.com,AT THE CORNER OF VAN NESS AND WISCONSIN, Monday 8:30 AM-7:00 PM Tuesday 8:30 AM-7:00 PM Wednesday 8:30 AM-7:00 PM Thursday 8:30 AM-7:00 PM Friday 8:30 AM-7:00 PM Saturday 10:00 AM-6:00 PM ,38.943231,-77.077171
58,"7119 E SHEA BLVD, STE 109",SCOTTSDALE,AZ,85254-6107,(480) 951-4380,(480) 991-3118,store0058@theupsstore.com,NEXT TO FRESH & EASY - S.W. CORNER OF SCOTTSDALE RD. & SHEA BLVD, Monday 8:00 AM-6:30 PM Tuesday 8:00 AM-6:30 PM Wednesday 8:00 AM-6:30 PM Thursday 8:00 AM-6:30 PM Friday 8:00 AM-6:30 PM Saturday 9:00 AM-3:30 PM ,33.581154,-111.927268
59,4411 BEE RIDGE RD,SARASOTA,FL,34233-2514, (941)371-6540,(941)371-4183,store0059@theupsstore.com,NORTH EAST CORNER OF BEE RIDGE AND MCINTOSH.,Monday 08:30 AM-06:00 PM Tuesday 08:30 AM-06:00 PM Wednesday 08:30 AM-06:00 PM Thursday 08:30 AM-06:00 PM Friday 08:30 AM-06:00 PM Saturday 09:00 AM-02:00 PM,27.299145,-82.480621
62,"3089 CLAIREMONT DR, STE C",SAN DIEGO,CA,92117, (619)275-2380,(619)275-2112,store0062@theupsstore.com,CLAIREMONT VILLAGE SHOPPING CENTER - NEXT TO SUBWAY & PAYLESS,Monday 8:00 AM-6:00 PM Tuesday 8:00 AM-6:00 PM Wednesday 8:00 AM-6:00 PM Thursday 8:00 AM-6:00 PM Friday 8:00 AM-6:00 PM Saturday 9:00 AM-5:00 PM,32.7968712,-117.193086
67,"1111 W EL CAMINO REAL, STE 109",SUNNYVALE,CA,94087-1057,(408)733-8382,(408)733-3938,store0067@theupsstore.com,BETWEEN MARY & BERNARDO IN CALA SHOPPING CENTER, Monday 9:00 AM-7:00 PM Tuesday 9:00 AM-7:00 PM Wednesday 9:00 AM-7:00 PM Thursday 9:00 AM-7:00 PM Friday 9:00 AM-7:00 PM Saturday 9:00 AM-5:00 PM ,37.3729906,-122.0531087
69,210 W HAMILTON AVE,STATE COLLEGE,PA,16801,(814)237-2552,(814)237-2687,store0069@theupsstore.com,HAMILTON SQUARE SHOPPING CENTER, Monday 07:00 AM-07:00 PM Tuesday 07:00 AM-07:00 PM Wednesday 07:00 AM-07:00 PM Thursday 07:00 AM-07:00 PM Friday 07:00 AM-07:00 PM Saturday 09:00 AM-04:00 PM ,40.7881247,-77.8562701
72,2440 E TUDOR RD,ANCHORAGE,AK,99507-1185, (907)563-2281,(907)563-2276,store0072@theupsstore.com,SOUTHEAST CORNER OF LAKE OTIS AND TUDOR,Monday 9:00 AM-7:00 PM Tuesday 9:00 AM-7:00 PM Wednesday 9:00 AM-7:00 PM Thursday 9:00 AM-7:00 PM Friday 9:00 AM-7:00 PM Saturday 9:00 AM-5:00 PM,61.1806959,-149.8358586
75,1647 WILLOW PASS RD,CONCORD,CA,94520-2611,(925) 680-6510,(925) 827-4837,store0075@theupsstore.com,PARK N' SHOP CENTER NEAR BURGER KING, Monday 7:30 AM-6:00 PM Tuesday 7:30 AM-6:00 PM Wednesday 7:30 AM-6:00 PM Thursday 7:30 AM-6:00 PM Friday 7:30 AM-6:00 PM Saturday 9:00 AM-4:00 PM ,37.9721684,-122.0435342
76,8760A RESEARCH BLVD,AUSTIN,TX,78758-6420, (512)451-7447,(512)458-6461,store0076@theupsstore.com,GRAND CENTRAL SHOPPING CENTER,Monday 8:00 AM-6:00 PM Tuesday 8:00 AM-6:00 PM Wednesday 8:00 AM-6:00 PM Thursday 8:00 AM-6:00 PM Friday 8:00 AM-6:00 PM Saturday 9:00 AM-3:00 PM,30.3648366,-97.7171129
77,"1108 LAVACA, STE 110",AUSTIN,TX,78701,(512)478-2917,(512)478-2318,store0077@theupsstore.com,ONE BLOCK WEST OF STATE CAPITAL BETWEEN 11TH & 12TH, Monday 8:00 AM-7:00 PM Tuesday 8:00 AM-7:00 PM Wednesday 8:00 AM-7:00 PM Thursday 8:00 AM-7:00 PM Friday 8:00 AM-7:00 PM Saturday 9:00 AM-3:00 PM ,30.2744032,-97.7432329
78,9921 CARMEL MOUNTAIN RD,SAN DIEGO,CA,92129-2813, (858)484-3411,(858)484-3451,store0078@theupsstore.com,IN THE STATER BROS. SHOPPING CENTER,Monday 08:30 AM-06:30 PM Tuesday 08:30 AM-06:30 PM Wednesday 08:30 AM-06:30 PM Thursday 08:30 AM-06:30 PM Friday 08:30 AM-06:30 PM Saturday 08:30 AM-04:30 PM,32.9606078,-117.1137769
79,448 IGNACIO BLVD,NOVATO,CA,94949,(415)883-1988,(415)883-1210,store0079@theupsstore.com,PACHECO PLAZA SHOPPING CENTER NEXT TO TAKI RESTAURANT, Monday 9:00 AM-6:00 PM Tuesday 9:00 AM-6:00 PM Wednesday 9:00 AM-6:00 PM Thursday 9:00 AM-6:00 PM Friday 9:00 AM-6:00 PM Saturday 9:00 AM-4:00 PM ,38.0671754,-122.5439805
81,3547 53RD AVE W,BRADENTON,FL,34210, (941)753-2343,(941)753-2882,store0081@theupsstore.com,NW COMMONS AT 34TH ST & 53RD AVE NEAR IMG ACADEMIES,Monday 8:00 AM-6:00 PM Tuesday 8:00 AM-6:00 PM Wednesday 8:00 AM-6:00 PM Thursday 8:00 AM-6:00 PM Friday 8:00 AM-6:00 PM Saturday 9:00 AM-5:00 PM,27.4478582,-82.5988574
82,"115 E OGDEN AVE, STE 117",NAPERVILLE,IL,60563,(630)355-3778,(630)355-3570,store0082@theupsstore.com,IN THE NORTH TOWN PLAZA NEXT TO JEWEL OSCO IN NAPERVILLE, Monday 8:00 AM-6:30 PM Tuesday 8:00 AM-6:30 PM Wednesday 8:00 AM-6:30 PM Thursday 8:00 AM-6:30 PM Friday 8:00 AM-6:30 PM Saturday 9:00 AM-4:00 PM ,41.786942,-88.146326
84,405 TARRYTOWN RD,WHITE PLAINS,NY,10607,(914)328-2055,(914)328-0309,store0084@theupsstore.com,BETWEEN PIER 1 AND CITIBANK, Monday 08:00 AM-07:00 PM Tuesday 08:00 AM-07:00 PM Wednesday 08:00 AM-07:00 PM Thursday 08:00 AM-07:00 PM Friday 08:00 AM-07:00 PM Saturday 09:00 AM-04:00 PM ,41.0431362,-73.7990126
88,7322 MANATEE AVE W,BRADENTON,FL,34209-3441,(941) 792-6366,(941) 795-0638,store0088@theupsstore.com,BEACHWAY PLAZA (BETWEEN PUBLIX AND KMART), Monday 8:30 AM-5:30 PM Tuesday 8:30 AM-5:30 PM Wednesday 8:30 AM-5:30 PM Thursday 8:30 AM-5:30 PM Friday 8:30 AM-5:30 PM Saturday 9:00 AM-3:00 PM ,27.4961562,-82.6347033
89,15 PARADISE PLAZA,SARASOTA,FL,34239, (941)957-1776,(941)365-7999,store0089@theupsstore.com,CORNER OF BEE RIDGE AND 41 IN PUBLIX/BORDERS PLAZA,Monday 8:00 AM-6:00 PM Tuesday 8:00 AM-6:00 PM Wednesday 8:00 AM-6:00 PM Thursday 8:00 AM-6:00 PM Friday 8:00 AM-6:00 PM Saturday 8:00 AM-4:00 PM,27.274053,-82.552111
90,"501 W BROADWAY, STE A",SAN DIEGO,CA,92101-3562,(619)232-0332,(619)232-2011,store0090@theupsstore.com,CORNER OF BROADWAY AND COLUMBIA, Monday 8:00 AM-6:30 PM Tuesday 8:00 AM-6:30 PM Wednesday 8:00 AM-6:30 PM Thursday 8:00 AM-6:30 PM Friday 8:00 AM-6:30 PM Saturday 9:00 AM-3:00 PM ,32.71559,-117.16739
93,35560 GRAND RIVER AVE,FARMINGTON HILLS,MI,48335, (248)477-6112,(248)477-6173,store0093@theupsstore.com,MUIRWOOD SHOPPING CENTER AT GRAND RIVER AND DRAKE,Monday 06:00 AM-06:00 PM Tuesday 06:00 AM-06:00 PM Wednesday 06:00 AM-06:00 PM Thursday 09:00 AM-06:00 PM Friday 09:00 AM-06:00 PM Saturday 09:00 AM-01:00 PM,42.4690668,-83.3979158
94,330 E MAPLE RD,BIRMINGHAM,MI,48009-6313,(248)642-8770,(248)642-3091,store0094@theupsstore.com,FREE PARKING IN NEW STRUCTURE BEHIND STORE! ENTER OFF PEABODY ST, Monday 9:00 AM-6:30 PM Tuesday 9:00 AM-6:30 PM Wednesday 9:00 AM-6:30 PM Thursday 9:00 AM-6:30 PM Friday 9:00 AM-6:30 PM Saturday 9:00 AM-4:00 PM ,42.5467298,-83.2126215
97,"1350 E FLAMINGO RD, STE 13B",LAS VEGAS,NV,89119, (702)732-0024,(702)796-0913,store0097@theupsstore.com,FLAMINGO AND MARYLAND BETWEEN ALBERTSON'S AND SAV-ON,Monday 08:00 AM-06:00 PM Tuesday 08:00 AM-06:00 PM Wednesday 08:00 AM-06:00 PM Thursday 08:00 AM-06:00 PM Friday 08:00 AM-06:00 PM Saturday 09:00 AM-05:00 PM Sunday 11:00 AM-03:00 PM,36.115435,-115.13508
98,3334 E COAST HWY,CORONA DEL MAR,CA,92625-2328,(949) 673-0751,(949) 673-6509,store0098@theupsstore.com,"NEXT TO BANK OF AMERICA, IN THE CITY OF NEWPORT BEACH", Monday 8:30 AM-6:30 PM Tuesday 8:30 AM-6:30 PM Wednesday 8:30 AM-6:30 PM Thursday 8:30 AM-6:30 PM Friday 8:30 AM-6:30 PM Saturday 9:00 AM-5:00 PM ,33.5960192,-117.8702433
99,1547 PALOS VERDES MALL,WALNUT CREEK,CA,94597-2228, (925)946-1016,(925)946-1027,store0099@theupsstore.com,PALOS VERDES MALL AT GEARY AND PLEASANT HILL,Monday 08:30 AM-06:00 PM Tuesday 08:30 AM-06:00 PM Wednesday 08:30 AM-06:00 PM Thursday 08:30 AM-06:00 PM Friday 08:30 AM-06:00 PM Saturday 10:00 AM-04:00 PM,37.925499,-122.08653
100,4938 HAMPDEN LN,BETHESDA,MD,20814, (301)951-9599,(301)951-9106,store0100@theupsstore.com,SHOPPES OF BETHESDA AT ARLINGTON AND HAMPDEN.,Monday 09:00 AM-06:30 PM Tuesday 09:00 AM-06:30 PM Wednesday 09:00 AM-06:30 PM Thursday 09:00 AM-06:30 PM Friday 09:00 AM-06:30 PM Saturday 10:00 AM-05:00 PM,38.982473,-77.097565
101,3126 S BOULEVARD ST,EDMOND,OK,73013-5308,(405)348-0334,(405)348-9615,store0101@theupsstore.com,1 BLOCK NORTH OF 33RD AND BOULEVARD INTERSECTION, Monday 08:30 AM-06:30 PM Tuesday 08:30 AM-06:30 PM Wednesday 08:30 AM-06:30 PM Thursday 08:30 AM-06:30 PM Friday 08:30 AM-06:30 PM Saturday 09:00 AM-05:00 PM ,35.6244619,-97.4781033
102,4960 ALMADEN EXPY,SAN JOSE,CA,95118-2007, (408)264-8800,(408)264-6042,store0102@theupsstore.com,"CORNER OF ALMADEN EXP/CHERRY, W/ SAFEWAY, NEXT TO ROTTEN ROBBIE",Monday 9:00 AM-7:00 PM Tuesday 9:00 AM-7:00 PM Wednesday 9:00 AM-7:00 PM Thursday 9:00 AM-7:00 PM Friday 9:00 AM-7:00 PM Saturday 9:00 AM-5:00 PM,37.2708541,-121.8785008
105,"933 SAN MATEO BLVD NE, STE 500",ALBUQUERQUE,NM,87108-1470,(505)266-4796,(505)266-1789,store0105@theupsstore.com,SW CORNER OF SAN MATEO AND LOMAS BETWEEN WECK'S AND TRUE VALUE, Monday 8:00 AM-7:00 PM Tuesday 8:00 AM-7:00 PM Wednesday 8:00 AM-7:00 PM Thursday 8:00 AM-7:00 PM Friday 8:00 AM-7:00 PM Saturday 10:00 AM-4:00 PM Sunday 12:00 AM-4:00 PM ,35.08672,-106.586766
107,4905 34TH ST S,SAINT PETERSBURG,FL,33711, (727)867-7234,(727)864-2229,store0107@theupsstore.com,BETWEEN GOLD'S GYM AND BEEF O'BRADYS ACROSS FROM BOB EVANS,Monday 8:00 AM-6:00 PM Tuesday 8:00 AM-6:00 PM Wednesday 8:00 AM-6:00 PM Thursday 8:00 AM-6:00 PM Friday 8:00 AM-6:00 PM Saturday 9:00 AM-3:00 PM,27.7233849,-82.6793593
108,5726 CORTEZ RD W,BRADENTON,FL,34210, (941)794-3241,(941)792-5152,store0108@theupsstore.com,"CORTEZ COMMONS, CORNER OF 59TH W. & CORTEZ RD ACROSS FROM WALMART",Monday 08:00 AM-06:00 PM Tuesday 08:00 AM-06:00 PM Wednesday 08:00 AM-06:00 PM Thursday 08:00 AM-06:00 PM Friday 08:00 AM-06:00 PM Saturday 09:00 AM-05:00 PM,27.4626331,-82.6189156
109,"3665 E BAY DR, STE 204",LARGO,FL,33771-1989,(727)535-0620,(727)530-9264,store0109@theupsstore.com,PUBLIX SHOPPING CENTER AT SW CORNER OF E BAY AND BELCHER, Monday 8:30 AM-6:30 PM Tuesday 8:30 AM-6:30 PM Wednesday 8:30 AM-6:30 PM Thursday 8:30 AM-6:30 PM Friday 8:30 AM-6:30 PM Saturday 10:30 AM-3:30 PM ,27.915252,-82.74887
112,5119 HIGHLAND RD,WATERFORD,MI,48327,(248) 618-0137,(248) 618-0667,store0112@theupsstore.com,CORNER OF M-59 & CRESCENT LAKE RD IN THE KROGER PLAZA, Monday 8:00 AM-6:30 PM Tuesday 8:00 AM-6:30 PM Wednesday 8:00 AM-6:30 PM Thursday 8:00 AM-6:30 PM Friday 8:00 AM-6:00 PM Saturday 9:00 AM-3:30 PM ,42.6602687,-83.3878901
113,1771 POST RD E,WESTPORT,CT,06880-5606, (203)254-1675,(203)259-8054,store0113@theupsstore.com,ACROSS FROM SUPER STOP & SHOP,Monday 08:00 AM-06:00 PM Tuesday 08:00 AM-06:00 PM Wednesday 08:00 AM-06:00 PM Thursday 08:00 AM-06:00 PM Friday 08:00 AM-06:00 PM Saturday 08:30 AM-05:30 PM,41.1383942,-73.3026954
115,"24881 ALICIA PKWY, STE E",LAGUNA HILLS,CA,92653-4696, (949)855-8544,(949)951-4605,store0115@theupsstore.com,ALICIA & 5 FWY BEHIND CARL'S JR. (6PM OVERNIGHT AIR PICKUP),Monday 8:30 AM-6:30 PM Tuesday 8:30 AM-6:30 PM Wednesday 8:30 AM-6:30 PM Thursday 8:30 AM-6:30 PM Friday 8:30 AM-6:30 PM Saturday 9:00 AM-5:00 PM,33.6006214,-117.6917817
117,"451 N HUNGERFORD DR, STE 119",ROCKVILLE,MD,20850, (301)294-8593,(301)294-8584,store0117@theupsstore.com,N HUNGERFORD SAME AS 355. OPPOSITE MAXIM SUPERMARKET.,Monday 08:00 AM-07:00 PM Tuesday 08:00 AM-07:00 PM Wednesday 08:00 AM-07:00 PM Thursday 08:00 AM-07:00 PM Friday 08:00 AM-07:00 PM Saturday 10:00 AM-04:00 PM,39.0895203,-77.1513689
118,6689 ORCHARD LAKE RD,WEST BLOOMFIELD,MI,48322,(248)855-4082,(248)855-4084,store0118@theupsstore.com,OLD ORCHARD SHOPPING CENTER - SOUTHEAST CORNER, Monday 8:30 AM-6:30 PM Tuesday 8:30 AM-6:30 PM Wednesday 8:30 AM-6:30 PM Thursday 8:30 AM-6:30 PM Friday 8:30 AM-6:30 PM Saturday 9:00 AM-5:00 PM ,42.5404904,-83.3606066
119,"15466 LOS GATOS BLVD, #109",LOS GATOS,CA,95032-2550,(408)356-9194,(408)356-5882,store0119@theupsstore.com,LOS GATOS VILLAGE SQUARE NEAR TRADER JOE'S, Monday 09:00 AM-06:00 PM Tuesday 09:00 AM-06:00 PM Wednesday 09:00 AM-06:00 PM Thursday 09:00 AM-06:00 PM Friday 09:00 AM-06:00 PM Saturday 10:00 AM-02:00 PM ,37.244046,-121.958735
121,13014 N DALE MABRY HWY,TAMPA,FL,33618-2808, (813)969-1848,(813)969-1754,store0121@theupsstore.com,IN NORTH TAMPA - CORNER OF FLETCHER AND DALE MABRY BEHIND CHILI'S,Monday 08:30 AM-07:00 PM Tuesday 08:30 AM-07:00 PM Wednesday 08:30 AM-07:00 PM Thursday 08:30 AM-07:00 PM Friday 08:30 AM-07:00 PM Saturday 10:00 AM-04:00 PM,28.064743,-82.505323
122,5669 SNELL AVE,SAN JOSE,CA,95123-3328,(408)578-8138,(408)578-0604,store0122@theupsstore.com,BLOOM PLAZA AT BLOSSOM HILL AND SNELL, Monday 08:00 AM-07:00 PM Tuesday 08:00 AM-07:00 PM Wednesday 08:00 AM-07:00 PM Thursday 08:00 AM-07:00 PM Friday 08:00 AM-07:00 PM Saturday 09:00 AM-06:00 PM ,37.250622,-121.831319
123,1811 ENGLEWOOD RD,ENGLEWOOD,FL,34223-1822, (941)474-0667,(941)474-5001,store0123@theupsstore.com,"LEMON BAY SHOPPING CENTER ON 776, 3 MILES NORTH OF DEARBORN",Monday 8:00 AM-6:00 PM Tuesday 8:00 AM-6:00 PM Wednesday 8:00 AM-6:00 PM Thursday 8:00 AM-6:00 PM Friday 8:00 AM-6:00 PM Saturday 9:00 AM-2:00 PM,26.999883,-82.376599
129,606 POST RD E,WESTPORT,CT,06880, (203)222-7171,(203)227-3877,store0129@theupsstore.com,ACROSS FROM SHAWS SUPERMARKET,Monday 08:00 AM-06:00 PM Tuesday 08:00 AM-06:00 PM Wednesday 08:00 AM-06:00 PM Thursday 08:00 AM-06:00 PM Friday 08:00 AM-06:00 PM Saturday 09:00 AM-05:00 PM,41.1385766,-73.3444989
130,2519 MCMULLEN BOOTH RD,CLEARWATER,FL,33761, (727)726-3456,(727)726-2060,store0130@theupsstore.com,NORTHWOOD OAKS SWEETBAY SHOPPING CENTER,Monday 8:00 AM-6:00 PM Tuesday 8:00 AM-6:00 PM Wednesday 8:00 AM-6:00 PM Thursday 8:00 AM-6:00 PM Friday 8:00 AM-6:00 PM Saturday 9:00 AM-5:00 PM,28.0134222,-82.708636
131,"645 G STREET, STE 100",ANCHORAGE,AK,99501,(907)276-7888,(907)276-6262,store0131@theupsstore.com,DOWNTOWN 7TH AVE & 'G' ST. NEXT TO NEW DENAINA CONVENTION CENTER, Monday 8:30 AM-6:30 PM Tuesday 8:30 AM-6:30 PM Wednesday 8:30 AM-6:30 PM Thursday 8:30 AM-6:30 PM Friday 8:30 AM-6:30 PM Saturday 10:00 AM-5:30 PM ,61.2158942,-149.8953883
134,2530 BERRYESSA RD,SAN JOSE,CA,95132-2903,(408)259-5800,(408)251-8991,store0134@theupsstore.com,CORNER OF CAPITOL AVE & BERRYESSA RD IN THE SAFEWAY SHOPPING CTR, Monday 9:00 AM-7:00 PM Tuesday 9:00 AM-7:00 PM Wednesday 9:00 AM-7:00 PM Thursday 9:00 AM-7:00 PM Friday 9:00 AM-7:00 PM Saturday 9:00 AM-5:00 PM ,37.387441,-121.8594618
135,"3540 W SAHARA AVE, #E6",LAS VEGAS,NV,89102-5816,(702)367-6252,(702)367-6421,store0135@theupsstore.com,"NE CORNER OF SAHARA AND VALLEY VIEW, NEXT TO CVS PHARMACY", Monday 7:30 AM-5:30 PM Tuesday 7:30 AM-5:30 PM Wednesday 7:30 AM-5:30 PM Thursday 7:30 AM-5:30 PM Friday 7:30 AM-5:30 PM Saturday 8:00 AM-3:00 PM ,36.145702,-115.188409
139,1380 RIO RANCHO BLVD SE,RIO RANCHO,NM,87124-1006,(505)892-5039,(505)892-5265,store0139@theupsstore.com,SMITH'S SHOPPING CENTER BEHIND MCDONALD'S, Monday 8:00 AM-6:00 PM Tuesday 8:00 AM-6:00 PM Wednesday 8:00 AM-6:00 PM Thursday 8:00 AM-6:00 PM Friday 8:00 AM-6:00 PM Saturday 8:00 AM-4:00 PM ,35.2387462,-106.6564455
140,18530 MACK AVE,GROSSE POINTE FARMS,MI,48236,(313)884-8440,(313)884-8442,store0140@theupsstore.com,ACROSS FROM INTERSECTION OF WARREN AND MACK, Monday 8:30 AM-7:00 PM Tuesday 8:30 AM-7:00 PM Wednesday 8:30 AM-7:00 PM Thursday 8:30 AM-7:00 PM Friday 8:30 AM-7:00 PM Saturday 10:00 AM-5:00 PM ,42.4111142,-82.912817
141,9431 WESTPORT PLAZA,LOUISVILLE,KY,40241, (502)426-1412,(502)429-6717,store0141@theupsstore.com,WESTPORT PLAZA NEAR LAC & COUNTY CLERKS OFFICE,Monday 08:00 AM-08:00 PM Tuesday 08:00 AM-08:00 PM Wednesday 08:00 AM-08:00 PM Thursday 08:00 AM-08:00 PM Friday 08:00 AM-08:00 PM Saturday 09:00 AM-06:00 PM,38.2857978,-85.5788507
144,3 GOLF CENTER,HOFFMAN ESTATES,IL,60169,(847)310-9666,(847)310-9275,store0144@theupsstore.com,GOLF AND ROSELLE ROADS, Monday 08:00 AM-06:00 PM Tuesday 08:00 AM-06:00 PM Wednesday 08:00 AM-06:00 PM Thursday 08:00 AM-06:00 PM Friday 08:00 AM-06:00 PM Saturday 08:00 AM-04:00 PM ,42.0473021,-88.0821573
148,2014 N SAGINAW RD,MIDLAND,MI,48640,(989)835-6050,(989)835-1173,store0148@theupsstore.com,NORTHWEST PLAZA - NEXT TO THE TEXAN., Monday 08:30 AM-07:00 PM Tuesday 08:30 AM-07:00 PM Wednesday 08:30 AM-07:00 PM Thursday 08:30 AM-07:00 PM Friday 08:30 AM-07:00 PM Saturday 09:00 AM-05:00 PM ,43.6413286,-84.2495844
149,7739 E BROADWAY BLVD,TUCSON,AZ,85710-3941, (520)885-2300,(520)885-2922,store0149@theupsstore.com,SUNFLOWER MARKET PETSMART SHOPPING CENTER AT PANTANO & BROADWAY,Monday 8:00 AM-6:00 PM Tuesday 8:00 AM-6:00 PM Wednesday 8:00 AM-6:00 PM Thursday 8:00 AM-6:00 PM Friday 8:00 AM-6:00 PM Saturday 9:00 AM-5:00 PM,32.2224044,-110.825808
151,5415 LAKE HOWELL RD,WINTER PARK,FL,32792,(407)678-0816,(407)678-0930,store0151@theupsstore.com,IN THE LAKE HOWELL PLAZA, Monday 9:00 AM-6:00 PM Tuesday 9:00 AM-6:00 PM Wednesday 9:00 AM-6:00 PM Thursday 9:00 AM-6:00 PM Friday 9:00 AM-6:00 PM Saturday 9:30 AM-3:30 PM ,28.6222266,-81.3239932
157,6822 22ND AVE N,SAINT PETERSBURG,FL,33710-3918, (727)381-2011,(727)381-6822,store0157@theupsstore.com,MARKETPLACE SHOPPING CENTER ACROSS FROM TYRONE SQUARE MALL,Monday 07:30 AM-06:00 PM Tuesday 07:30 AM-06:00 PM Wednesday 07:30 AM-06:00 PM Thursday 07:30 AM-06:00 PM Friday 07:30 AM-06:00 PM Saturday 08:30 AM-02:00 PM,27.7917145,-82.7342691
158,11410 NE 124TH ST,KIRKLAND,WA,98034,(425)823-3198,(425)821-7726,store0158@theupsstore.com,"NEAR STARBUCKS, ACROSS FROM OLIVE GARDEN RESTAURANT", Monday 08:00 AM-07:00 PM Tuesday 08:00 AM-07:00 PM Wednesday 08:00 AM-07:00 PM Thursday 08:00 AM-07:00 PM Friday 08:00 AM-07:00 PM Saturday 09:00 AM-05:00 PM ,47.711534,-122.188632
159,6433 TOPANGA CANYON BLVD,CANOGA PARK,CA,91303,(818)704-5808,(818)704-0851,store0159@theupsstore.com,NORTH OF VICTORY NEXT TO MOBIL GAS STATION, Monday 08:30 AM-07:00 PM Tuesday 08:30 AM-07:00 PM Wednesday 08:30 AM-07:00 PM Thursday 08:30 AM-07:00 PM Friday 08:30 AM-07:00 PM Saturday 10:00 AM-04:00 PM ,34.187609,-118.606259
161,7665 MENTOR AVE,MENTOR,OH,44060-5409,(440)942-4550,(440)942-4514,store0161@theupsstore.com,ACROSS FROM BEST BUY IN MENTOR CITY CENTER, Monday 8:30 AM-7:00 PM Tuesday 8:30 AM-7:00 PM Wednesday 8:30 AM-7:00 PM Thursday 8:30 AM-7:00 PM Friday 8:30 AM-6:30 PM Saturday 9:00 AM-3:00 PM ,41.6591014,-81.3667189
162,29193 NORTHWESTERN HWY,SOUTHFIELD,MI,48034-1006,(248)352-6968,(248)352-6970,store0162@theupsstore.com,FRANKLIN PLAZA SHOPPING CENTER, Monday 08:30 AM-07:00 PM Tuesday 08:30 AM-07:00 PM Wednesday 08:30 AM-07:00 PM Thursday 08:30 AM-07:00 PM Friday 08:30 AM-07:00 PM Saturday 10:00 AM-04:00 PM ,42.5017455,-83.3105493
163,7660-H FAY AVE,LA JOLLA,CA,92037-4843, (858)454-3131,(858)454-4523,store0163@theupsstore.com,IN DOWNTOWN LA JOLLA AT FAY AND KLINE,Monday 08:00 AM-06:00 PM Tuesday 08:00 AM-06:00 PM Wednesday 08:00 AM-06:00 PM Thursday 08:00 AM-06:00 PM Friday 08:00 AM-06:00 PM Saturday 09:00 AM-05:00 PM,32.842874,-117.275
165,2604 ELMWOOD AVE,ROCHESTER,NY,14618-2213,(585)244-7380,(585)244-4106,store0165@theupsstore.com,BRIGHTON 12 CORNERS. CORNER OF ELMWOOD & WINTON RD, Monday 8:30 AM-7:00 PM Tuesday 8:30 AM-7:00 PM Wednesday 8:30 AM-7:00 PM Thursday 8:30 AM-7:00 PM Friday 8:30 AM-7:00 PM Saturday 9:00 AM-4:00 PM ,43.1265535,-77.5666213
167,110 PACIFIC AVE MALL,SAN FRANCISCO,CA,94111-1900,(415)982-0271,(415)982-0234,store0167@theupsstore.com,ON DAVIS BETWEEN JACKSON & BROADWAY ACROSS THE PARK FROM SAFEWAY, Monday 08:00 AM-06:30 PM Tuesday 08:00 AM-06:30 PM Wednesday 08:00 AM-06:30 PM Thursday 08:00 AM-06:30 PM Friday 08:00 AM-06:30 PM Saturday 09:00 AM-03:00 PM ,37.787503,-122.427216
168,4067 HARDWICK ST,LAKEWOOD,CA,90712-2324,(562)408-2383,(562)408-2745,store0168@theupsstore.com,ACROSS FROM LAKEWOOD MALL AT LAKEWOOD AND HARDWICK, Monday 8:30 AM-6:30 PM Tuesday 8:30 AM-6:30 PM Wednesday 8:30 AM-6:30 PM Thursday 8:30 AM-6:30 PM Friday 8:30 AM-6:30 PM Saturday 8:30 AM-4:30 PM ,33.8504887,-118.1442745
170,526 W 14TH ST,TRAVERSE CITY,MI,49684-4051,(231)947-0999,(231)947-2760,store0170@theupsstore.com,1 1/4 BLOCKS EAST OF THE INTERSECTION OF US 31 AND 37, Monday 8:00 AM-6:00 PM Tuesday 8:00 AM-6:00 PM Wednesday 8:00 AM-6:00 PM Thursday 8:00 AM-6:00 PM Friday 8:00 AM-6:00 PM Saturday 8:00 AM-4:00 PM ,44.7516923,-85.6307506
171,167 CHERRY ST,MILFORD,CT,06460-3466,(203)783-1876,(203)874-9212,store0171@theupsstore.com,MILFORD PLAZA SHOPPING CENTER - NEXT TO SHOP RITE, Monday 08:30 AM-06:30 PM Tuesday 08:30 AM-06:30 PM Wednesday 08:30 AM-06:30 PM Thursday 08:30 AM-06:30 PM Friday 08:30 AM-06:30 PM Saturday 09:00 AM-05:00 PM ,41.2288956,-73.0493341
174,1911 SW CAMPUS DR,FEDERAL WAY,WA,98023,(253)874-6583,(253)874-0873,store0174@theupsstore.com,TWINS LAKES SHOPPING CENTER, Monday 08:00 AM-07:00 PM Tuesday 08:00 AM-07:00 PM Wednesday 08:00 AM-07:00 PM Thursday 08:00 AM-07:00 PM Friday 08:00 AM-07:00 PM Saturday 09:00 AM-05:00 PM Sunday 10:00 AM-04:00 PM ,47.3006686,-122.3591558
175,2269 CHESTNUT ST,SAN FRANCISCO,CA,94123-2600,(415)922-4500,(415)922-0149,store0175@theupsstore.com,BETWEEN PIERCE AND SCOTT STREETS, Monday 8:00 AM-6:00 PM Tuesday 8:00 AM-6:00 PM Wednesday 8:00 AM-6:00 PM Thursday 8:00 AM-6:00 PM Friday 8:00 AM-6:00 PM Saturday 10:00 AM-4:00 PM ,37.8002441,-122.4406331
176,"4225 MILLER RD, STE B-9",FLINT,MI,48507,(810)733-0055,(810)733-5025,store0176@theupsstore.com,IN THE VALLEY PLAZA 1 MILE WEST OF I-75 IN FRONT OF PIRATE'S PARK, Monday 9:00 AM-7:00 PM Tuesday 9:00 AM-7:00 PM Wednesday 9:00 AM-7:00 PM Thursday 9:00 AM-7:00 PM Friday 9:00 AM-7:00 PM Saturday 9:00 AM-5:00 PM ,42.980301,-83.758673
178,3145 GEARY BLVD,SAN FRANCISCO,CA,94118-3316, (415)751-6644,(415)751-0947,store0178@theupsstore.com,RICHMOND DIST. AT GEARY & SPRUCE - 1 BLK FROM POST OFFICE ON PARK,Monday 08:30 AM-06:30 PM Tuesday 08:30 AM-06:30 PM Wednesday 08:30 AM-06:30 PM Thursday 08:30 AM-06:30 PM Friday 08:30 AM-06:30 PM Saturday 09:00 AM-05:00 PM,37.781604,-122.4529207
180,1030 E EL CAMINO REAL,SUNNYVALE,CA,94087-3759,(408)245-1600,(408)245-2135,store0180@theupsstore.com,"BETWEEN WOLFE & LAWRENCE, ON THE CORNER OF HENDERSON", Monday 09:00 AM-07:00 PM Tuesday 09:00 AM-07:00 PM Wednesday 09:00 AM-07:00 PM Thursday 09:00 AM-07:00 PM Friday 09:00 AM-07:00 PM Saturday 09:00 AM-05:00 PM ,37.3520996,-122.005837
181,6278 N FEDERAL HWY,FORT LAUDERDALE,FL,33308,(954)491-6245,(954)491-6246,store0181@theupsstore.com,LOOK BETWEEN EINSTEIN'S AND BONEFISH GRILL @ BAYVIEW & FEDERAL, Monday 08:00 AM-06:30 PM Tuesday 08:00 AM-06:30 PM Wednesday 08:00 AM-06:30 PM Thursday 08:00 AM-06:30 PM Friday 08:00 AM-06:30 PM Saturday 09:00 AM-03:00 PM ,26.2053027,-80.1082316
185,2490 BLACK ROCK TURNPIKE,FAIRFIELD,CT,06825, (203)374-3354,(203)374-2478,store0185@theupsstore.com,WHITE BIRCH PLAZA - OPPOSITE SWANSON'S FISH MARKET,Monday 8:00 AM-6:30 PM Tuesday 8:00 AM-6:00 PM Wednesday 8:00 AM-6:00 PM Thursday 8:00 AM-6:00 PM Friday 8:00 AM-6:00 PM Saturday 8:30 AM-4:00 PM,41.183554,-73.2553656
188,"17853 SANTIAGO BLVD, STE 107",VILLA PARK,CA,92861, (714)637-6180,(714)637-6957,store0188@theupsstore.com,RALPHS SHOPPING CENTER AT SANTIAGO AND WANDA,Monday 08:00 AM-06:00 PM Tuesday 08:00 AM-06:00 PM Wednesday 08:00 AM-06:00 PM Thursday 08:00 AM-06:00 PM Friday 08:00 AM-06:00 PM Saturday 09:00 AM-05:00 PM,33.814892,-117.8205
190,5100-B1 CLAYTON RD,CONCORD,CA,94521-3165,(925)689-6245,(925)689-6249,store0190@theupsstore.com,VINEYARD SHOPPING CENTER AT ALBERTA WAY AND CLAYTON ROAD, Monday 08:00 AM-07:00 PM Tuesday 08:00 AM-07:00 PM Wednesday 08:00 AM-07:00 PM Thursday 08:00 AM-07:00 PM Friday 08:00 AM-07:00 PM Saturday 09:00 AM-05:00 PM ,37.955094,-121.969678
191,14241 NE WOODINVILLE-DUVALL RD,WOODINVILLE,WA,98072,(425)486-6245,(425)481-8179,store0191@theupsstore.com,NEXT TO JENNY CRAIG AND SUBWAY, Monday 08:30 AM-06:30 PM Tuesday 08:30 AM-06:30 PM Wednesday 08:30 AM-06:30 PM Thursday 08:30 AM-06:30 PM Friday 08:30 AM-06:30 PM Saturday 09:00 AM-05:00 PM ,47.7560431,-122.1490028
193,144 FAIRPORT VILLAGE LANDING,FAIRPORT,NY,14450-1804,(585)425-7255,(585)425-7381,store0193@theupsstore.com,FAIRPORT VILLAGE LANDING ACROSS FROM TOWN HALL, Monday 08:30 AM-07:00 PM Tuesday 08:30 AM-07:00 PM Wednesday 08:30 AM-07:00 PM Thursday 08:30 AM-07:00 PM Friday 08:30 AM-07:00 PM Saturday 10:00 AM-04:00 PM ,43.1008105,-77.4431881
196,3661 N CAMPBELL AVE,TUCSON,AZ,85719, (520)323-3535,(520)323-9216,store0196@theupsstore.com,SAFEWAY SHOPPING CENTER AT PRINCE AND CAMPBELL,Monday 8:00 AM-6:00 PM Tuesday 8:00 AM-6:00 PM Wednesday 8:00 AM-6:00 PM Thursday 8:00 AM-6:00 PM Friday 8:00 AM-6:00 PM Saturday 9:00 AM-2:00 PM,32.2732921,-110.9461526
197,305 VINEYARD TOWN CENTER,MORGAN HILL,CA,95037-5674,(408)778-5858,(408)779-0678,store0197@theupsstore.com,VINYARD SHOPPING CENTER AT MONTEREY AND TENNANT, Monday 8:30 AM-7:00 PM Tuesday 8:30 AM-7:00 PM Wednesday 8:30 AM-7:00 PM Thursday 8:30 AM-7:00 PM Friday 8:30 AM-7:00 PM Saturday 9:00 AM-5:00 PM ,37.1093538,-121.6414867
202,3527 MT DIABLO BLVD,LAFAYETTE,CA,94549-3815, (925)284-1377,(925)284-9442,store0202@theupsstore.com,ACROSS FROM SAFEWAY- NEXT TO WACHOVIA BANK,Monday 08:00 AM-06:00 PM Tuesday 08:00 AM-06:00 PM Wednesday 08:00 AM-06:00 PM Thursday 08:00 AM-06:00 PM Friday 08:00 AM-06:00 PM Saturday 09:00 AM-05:00 PM,37.891808,-122.1191766
207,7101 N MESA,EL PASO,TX,79912, (915)833-4005,(915)833-4667,store0207@theupsstore.com,"MESA & RESLER, NEXT TO EL TACO TOTE ACROSS FROM ALBERTSONS",Monday 08:00 AM-06:00 PM Tuesday 08:00 AM-06:00 PM Wednesday 08:00 AM-06:00 PM Thursday 08:00 AM-06:00 PM Friday 08:00 AM-06:00 PM Saturday 09:00 AM-05:00 PM,31.835967,-106.552792
208,3220 N ST NW,WASHINGTON,DC,20007-2829,(202)342-0707,(202)342-0751,store0208@theupsstore.com,1/2 BLOCK WEST OF WISCONSIN AVENUE, Monday 08:30 AM-06:30 PM Tuesday 08:30 AM-06:30 PM Wednesday 08:30 AM-06:30 PM Thursday 08:30 AM-06:30 PM Friday 08:30 AM-06:30 PM Saturday 09:00 AM-05:00 PM ,38.9067885,-77.0639623
209,5430 LYNX LANE,COLUMBIA,MD,21044-2302, (410)964-9001,(410)740-2335,store0209@theupsstore.com,WILDE LAKE VILLAGE CENTER NEAR DAVID'S NATURAL MARKET,Monday 09:00 AM-07:00 PM Tuesday 09:00 AM-07:00 PM Wednesday 09:00 AM-07:00 PM Thursday 09:00 AM-07:00 PM Friday 09:00 AM-07:00 PM Saturday 09:00 AM-05:00 PM,39.220204,-76.87612
210,"7200 MONTGOMERY NE, STE B9",ALBUQUERQUE,NM,87109-1596,(505)888-9577,(505)888-8997,store0210@theupsstore.com,"MAIN CROSS STREETS ARE LOUISIANA & MONTGOMERY, IN THE TJ MAX CTR", Monday 08:00 AM-06:00 PM Tuesday 08:00 AM-06:00 PM Wednesday 08:00 AM-06:00 PM Thursday 08:00 AM-06:00 PM Friday 08:00 AM-06:00 PM Saturday 09:00 AM-05:00 PM ,35.130141,-106.56546
211,145 S LIVERNOIS,ROCHESTER HILLS,MI,48307,(248)656-2106,(248)656-2109,store0211@theupsstore.com,CAMPUS CORNERS SHOPPING CENTER AT WALTON AND LIVERNOIS, Monday 09:00 AM-07:00 PM Tuesday 09:00 AM-07:00 PM Wednesday 09:00 AM-07:00 PM Thursday 09:00 AM-07:00 PM Friday 09:00 AM-07:00 PM Saturday 09:00 AM-05:00 PM ,42.6799848,-83.1532832
217,39120 ARGONAUT WAY,FREMONT,CA,94538-1304,(510)791-1122,(510)791-0271,store0217@theupsstore.com,FREMONT HUB SHOPPING CENTER NEAR SAFEWAY., Monday 8:00 AM-8:00 PM Tuesday 8:00 AM-8:00 PM Wednesday 8:00 AM-8:00 PM Thursday 8:00 AM-8:00 PM Friday 8:00 AM-7:00 PM Saturday 9:00 AM-6:00 PM Sunday 10:00 AM-6:00 PM ,37.5445782,-121.9891902
219,", #36 FOUR SEASONS SHOPPING CENTER",CHESTERFIELD,MO,63017-3103, (314)878-7824,(314)878-4016,store0219@theupsstore.com,CORNER OF 141 AND OLIVE ST ROAD,Monday 08:00 AM-06:30 PM Tuesday 08:00 AM-06:30 PM Wednesday 08:00 AM-06:30 PM Thursday 08:00 AM-06:30 PM Friday 08:00 AM-06:30 PM Saturday 09:00 AM-03:00 PM,38.649845,-90.578403
220,644 GREENVILLE AVE,STAUNTON,VA,24401, (540)885-6245,(540)885-2227,store0220@theupsstore.com,MAPLE MAY BUSH VILLAGE SHOPPING CENTER NEXT TO PAPA JOHN'S PIZZA,Monday 08:00 AM-06:00 PM Tuesday 08:00 AM-06:00 PM Wednesday 08:00 AM-06:00 PM Thursday 08:00 AM-06:00 PM Friday 08:00 AM-06:00 PM Saturday 09:00 AM-05:00 PM,38.137254,-79.068498
224,119 ROCKLAND CENTER,NANUET,NY,10954-2956, (845)624-3844,(845)624-3848,store0224@theupsstore.com,ROCKLAND SHOPPING CENTER NEXT TO POSA POSA PIZZA,Monday 08:00 AM-06:00 PM Tuesday 08:00 AM-06:00 PM Wednesday 08:00 AM-06:00 PM Thursday 08:00 AM-06:00 PM Friday 08:00 AM-06:00 PM Saturday 09:00 AM-05:00 PM,41.0967314,-74.0057028
225,4397 W BETHANY HOME RD,GLENDALE,AZ,85301-5401, (623)842-3505,(623)435-9029,store0225@theupsstore.com,FRY'S PLAZA AT SW CORNER OF 43RD AVE AND W BETHANY HOME RD,Monday 08:00 AM-06:00 PM Tuesday 08:00 AM-06:00 PM Wednesday 08:00 AM-06:00 PM Thursday 08:00 AM-06:00 PM Friday 08:00 AM-06:00 PM Saturday 09:00 AM-05:00 PM,33.523917,-112.1540626
226,1280 SOM CENTER RD,MAYFIELD HEIGHTS,OH,44124-2048,(440)461-5605,(440)461-6654,store0226@theupsstore.com,ACROSS FROM EASTGATE, Monday 8:30 AM-6:30 PM Tuesday 8:30 AM-6:30 PM Wednesday 8:30 AM-6:30 PM Thursday 8:30 AM-6:30 PM Friday 8:30 AM-6:30 PM Saturday 9:00 AM-5:00 PM ,41.52548,-81.438791
227,2435 E NORTH ST,GREENVILLE,SC,29615-1442,(864)268-2938,(864)244-0666,store0227@theupsstore.com,NORTH HILLS SHOPPING CENTER AT 291, Monday 08:30 AM-06:30 PM Tuesday 08:30 AM-06:30 PM Wednesday 08:30 AM-06:30 PM Thursday 08:30 AM-06:30 PM Friday 08:30 AM-06:30 PM Saturday 09:00 AM-05:00 PM ,34.871269,-82.326407
232,2123 OLD SPARTANBURG RD,GREER,SC,29650-2704,(864)292-3880,(864)292-3883,store0232@theupsstore.com,HUDSON CORNERS SHOPPING CENTER ACROSS FROM ACE HARDWARE, Monday 8:30 AM-6:30 PM Tuesday 8:30 AM-6:30 PM Wednesday 8:30 AM-6:30 PM Thursday 8:30 AM-6:30 PM Friday 8:30 AM-6:30 PM Saturday 9:00 AM-5:00 PM ,34.897462,-82.261288
233,815-A BRAZOS ST,AUSTIN,TX,78701,512.476.5316,512.482.0457,store0233@theupsstore.com,SE CORNER OF 9TH STREET AND BRAZOS STREET, Monday 9:00 AM-6:00 PM Tuesday 9:00 AM-6:00 PM Wednesday 9:00 AM-6:00 PM Thursday 9:00 AM-6:00 PM Friday 9:00 AM-6:00 PM Saturday 10:00 AM-1:00 PM ,30.2702973,-97.7402954
234,5364 EHRLICH RD,TAMPA,FL,33624, (813)968-8437,(813)968-7098,store0234@theupsstore.com,CORNER OF EHRLICH & TURNER/ANDERSON - CLOSED ON SUNDAYS,Monday 08:00 AM-07:00 PM Tuesday 08:00 AM-07:00 PM Wednesday 08:00 AM-07:00 PM Thursday 08:00 AM-07:00 PM Friday 08:00 AM-07:00 PM Saturday 09:00 AM-04:00 PM,28.0835427,-82.541207
235,"10121 EVERGREEN WY, #25",EVERETT,WA,98204-3878, (425)353-9144,(425)347-4877,store0235@theupsstore.com,INTERSECTION OF EVERETT MALL WAY AND EVERGREEN WAY,Monday 8:30 AM-6:30 PM Tuesday 8:30 AM-6:30 PM Wednesday 8:30 AM-6:30 PM Thursday 8:30 AM-6:30 PM Friday 8:30 AM-6:30 PM Saturday 8:30 AM-4:30 PM,47.9063676,-122.2425596
236,"353 E 10TH ST, STE E",GILROY,CA,95020-6500, (408)847-4587,(408)848-5651,store0236@theupsstore.com,"ON 10TH STREET BY ORCHARD SUPPLY, NEAR WESTERN APPLIANCE",Monday 09:00 AM-07:00 PM Tuesday 09:00 AM-07:00 PM Wednesday 09:00 AM-07:00 PM Thursday 09:00 AM-07:00 PM Friday 09:00 AM-07:00 PM Saturday 09:00 AM-02:00 PM,37.0016545,-121.561228
238,7154 N UNIVERSITY DR,TAMARAC,FL,33321-2916, (954)722-9404,(954)722-9995,store0238@theupsstore.com,NORTHEAST CORNER OF MCNAB RD AND UNIVERSITY DR,Monday 08:30 AM-06:30 PM Tuesday 08:30 AM-06:30 PM Wednesday 08:30 AM-06:30 PM Thursday 08:30 AM-06:30 PM Friday 08:30 AM-06:30 PM Saturday 09:00 AM-05:00 PM,26.2083905,-80.2522455
239,"333 S STATE ST, STE V",LAKE OSWEGO,OR,97034,(503)636-6790,(503)636-0436,store0239@theupsstore.com,HIGHWAY 43 - ACROSS FROM LAKEWOOD CENTER OF ARTS, Monday 8:00 AM-6:00 PM Tuesday 8:00 AM-6:00 PM Wednesday 8:00 AM-6:00 PM Thursday 8:00 AM-6:00 PM Friday 8:00 AM-6:00 PM Saturday 9:00 AM-5:00 PM ,45.4132833,-122.663936
240,5339 PROSPECT RD,SAN JOSE,CA,95129-5033, (408)996-1161,(408)996-1584,store0240@theupsstore.com,"ACROSS THE PARKING LOT FROM VERIZON, NEXT TO SCHROEDER'S",Monday 9:00 AM-6:00 PM Tuesday 9:00 AM-6:00 PM Wednesday 9:00 AM-6:00 PM Thursday 9:00 AM-6:00 PM Friday 9:00 AM-6:00 PM Saturday 10:00 AM-4:00 PM Sunday 9:00 AM-4:00 PM,37.2922934,-121.9957347
241,2025 ZUMBEHL RD,ST CHARLES,MO,63303,(636)947-8870,(636)723-2932,store0241@theupsstore.com,INSIDE THE DIERBERG'S @ BOGEY HILL PLAZA, Monday 08:00 AM-06:30 PM Tuesday 08:00 AM-06:30 PM Wednesday 08:00 AM-06:30 PM Thursday 08:00 AM-06:30 PM Friday 08:00 AM-06:30 PM Saturday 09:00 AM-03:00 PM ,38.7842972,-90.5328311
243,6114 LA SALLE AVE,OAKLAND,CA,94611, (510)339-9757,(510)339-1100,store0243@theupsstore.com,MONTCLAIR PLAZA IN THE MONTCLAIR DISTRICT,Monday 08:00 AM-07:00 PM Tuesday 08:00 AM-07:00 PM Wednesday 08:00 AM-07:00 PM Thursday 08:00 AM-07:00 PM Friday 08:00 AM-07:00 PM Saturday 09:00 AM-05:00 PM,37.8264626,-122.2100359
244,969-G EDGEWATER BLVD,FOSTER CITY,CA,94404-3760,(650)572-9100,(650)572-9395,store0244@theupsstore.com,EDGEWATER SHOPPING CTR BETWEEN LUCKY'S SUPERMARKET AND CHEVY'S, Monday 8:30 AM-6:30 PM Tuesday 8:30 AM-6:30 PM Wednesday 8:30 AM-6:30 PM Thursday 8:30 AM-6:30 PM Friday 8:30 AM-6:30 PM Saturday 9:00 AM-5:00 PM ,37.544616,-122.270794
245,9401 MENTOR AVE,MENTOR,OH,44060,(440)255-5555,(440)255-7264,store0245@theupsstore.com,NE CORNER OF HEISLEY RD & MENTOR AVE, Monday 09:00 AM-07:00 PM Tuesday 09:00 AM-07:00 PM Wednesday 09:00 AM-07:00 PM Thursday 09:00 AM-07:00 PM Friday 09:00 AM-07:00 PM Saturday 09:00 AM-05:00 PM ,41.6803847,-81.3011868
247,2973 HARBOR BLVD,COSTA MESA,CA,92626-3912, (714)557-2702,(714)557-3044,store0247@theupsstore.com,AT HARBOR / BAKER BEHIND CONROY'S FLOWERS,Monday 8:15 AM-6:30 PM Tuesday 8:15 AM-6:30 PM Wednesday 8:15 AM-6:30 PM Thursday 8:15 AM-6:30 PM Friday 8:15 AM-6:30 PM Saturday 9:00 AM-4:00 PM,33.6795337,-117.9194457
248,"4279 ROSWELL RD NE, STE 102",ATLANTA,GA,30342-3700,(404)256-3948,(404)256-2602,store0248@theupsstore.com,PUBLIX SHOPPING CENTER CHASTAIN SQUARE, Monday 08:30 AM-07:00 PM Tuesday 08:30 AM-07:00 PM Wednesday 09:00 AM-07:00 PM Thursday 09:00 AM-07:00 PM Friday 09:00 AM-07:00 PM Saturday 10:00 AM-05:00 PM ,33.870935,-84.379557
250,591 TELEGRAPH CANYON RD,CHULA VISTA,CA,91910-6436,(619)482-0123,(619)482-0345,store0250@theupsstore.com,VONS SHOPPING CENTER EAST OF 805 ON TELEGRAPH CANYON, Monday 8:00 AM-7:00 PM Tuesday 8:00 AM-7:00 PM Wednesday 8:00 AM-7:00 PM Thursday 8:00 AM-7:00 PM Friday 8:00 AM-7:00 PM Saturday 9:00 AM-5:00 PM ,32.6280915,-117.0371336
255,130 INVERNESS PLAZA,BIRMINGHAM,AL,35242-4800,(205)991-9999,(205)991-3877,store0255@theupsstore.com,CORNER OF HIGHWAY 280 AND VALLEYDALE ROAD, Monday 8:00 AM-6:00 PM Tuesday 8:00 AM-6:00 PM Wednesday 8:00 AM-6:00 PM Thursday 8:00 AM-6:00 PM Friday 8:00 AM-6:00 PM Saturday 10:00 AM-2:00 PM ,33.4197512,-86.6975511
256,"7427 MATTHEWS MINT HILL RD, STE 105",MINT HILL,NC,28227,704-545-1938,704-545-1940,store0256@theupsstore.com,MINT HILL VILLAGE, Monday 8:30 AM-7:00 PM Tuesday 8:30 AM-7:00 PM Wednesday 8:30 AM-7:00 PM Thursday 8:30 AM-7:00 PM Friday 8:30 AM-7:00 PM Saturday 9:00 AM-3:00 PM ,35.175968,-80.6538847
263,"10800 ALPHARETTA HWY, STE 208",ROSWELL,GA,30076-1467,(770)641-1702,(770)587-2879,store0263@theupsstore.com,"ALPHARETTA HIGHWAY AT MANSELL ROAD, ROSWELL MARKET PLACE SC", Monday 8:30 AM-6:30 PM Tuesday 8:30 AM-6:30 PM Wednesday 8:30 AM-6:30 PM Thursday 8:30 AM-6:30 PM Friday 8:30 AM-6:30 PM Saturday 9:00 AM-5:00 PM ,34.044357,-84.342383
264,825C MERRIMON AVE,ASHEVILLE,NC,28804-2404, (828)252-6930,(828)252-6943,store0264@theupsstore.com,CITIZEN'S PLAZA SHOPPING CENTER ON THE LOWER LEVEL,Monday 08:00 AM-06:30 PM Tuesday 08:00 AM-06:30 PM Wednesday 08:00 AM-06:30 PM Thursday 08:00 AM-06:30 PM Friday 08:00 AM-06:30 PM Saturday 09:00 AM-02:30 PM,35.626645,-82.552553
266,2443 FAIR OAKS BLVD,SACRAMENTO,CA,95825-7684, (916)971-4957,(916)971-1522,store0266@theupsstore.com,LOEHMANN'S PLAZA AT FAIR OAKS AND MONROE,Monday 08:00 AM-07:00 PM Tuesday 08:00 AM-07:00 PM Wednesday 08:00 AM-07:00 PM Thursday 08:00 AM-07:00 PM Friday 08:00 AM-07:00 PM Saturday 09:00 AM-05:00 PM,38.5746524,-121.4039767
267,9051 WATSON RD,ST LOUIS,MO,63126-2220,(314)968-5563,(314)968-0581,store0267@theupsstore.com,1/2 MILE EAST OF CRESTWOOD PLAZA IN CRESTWOOD SQUARE, Monday 8:00 AM-6:30 PM Tuesday 8:00 AM-6:30 PM Wednesday 8:00 AM-6:30 PM Thursday 8:00 AM-6:30 PM Friday 8:00 AM-6:00 PM Saturday 9:00 AM-4:00 PM ,38.5597216,-90.3748394
271,"1605 GEORGE DIETER, STE C",EL PASO,TX,79936-5686, (915)595-2959,(915)591-8762,store0271@theupsstore.com,CORNER OF GEORGE DIETER & VISTA DEL SOL (INSIDE DIETER PLAZA),Monday 8:00 AM-6:00 PM Tuesday 8:00 AM-6:00 PM Wednesday 8:00 AM-6:00 PM Thursday 8:00 AM-6:00 PM Friday 8:00 AM-6:00 PM Saturday 8:00 AM-4:00 PM,31.752543,-106.302528
272,1155-C ARNOLD DR,MARTINEZ,CA,94553-4104,(925)372-7662,(925)372-6507,store0272@theupsstore.com,BETWEEN LUCKY AND RIDE AID, Monday 8:00 AM-7:00 PM Tuesday 8:00 AM-7:00 PM Wednesday 8:00 AM-7:00 PM Thursday 8:00 AM-7:00 PM Friday 8:00 AM-7:00 PM Saturday 9:00 AM-4:00 PM ,37.9955067,-122.1087166
273,"610 E BELL RD, #2",PHOENIX,AZ,85022-2393,(602)863-6694,(602)866-0636,store0273@theupsstore.com,SAFEWAY PLAZA AT NORTHWEST CORNER OF BELL AND 7TH STREET, Monday 08:00 AM-06:00 PM Tuesday 08:00 AM-06:00 PM Wednesday 08:00 AM-06:00 PM Thursday 08:00 AM-06:00 PM Friday 08:00 AM-06:00 PM Saturday 09:00 AM-05:00 PM ,33.640386,-112.0670171
275,8630-M GUILFORD RD,COLUMBIA,MD,21046-2654, (410)290-6900,(410)290-6914,store0275@theupsstore.com,KINGS CONTRIVANCE VILLAGE CENTER NEAR MICHAEL'S PUB,Monday 08:30 AM-07:00 PM Tuesday 08:30 AM-07:00 PM Wednesday 08:30 AM-07:00 PM Thursday 08:30 AM-07:00 PM Friday 08:30 AM-07:00 PM Saturday 09:00 AM-05:00 PM,39.1699739,-76.8645696
279,110 MARGINAL WAY,PORTLAND,ME,04101,(207)761-0173,(207)761-2406,store0279@theupsstore.com,BAYSIDE VILLAGE BUILDING, Monday 7:30 AM-6:00 PM Tuesday 7:30 AM-6:00 PM Wednesday 7:30 AM-6:00 PM Thursday 7:30 AM-6:00 PM Friday 7:30 AM-6:00 PM Saturday 10:00 AM-4:00 PM ,43.6624373,-70.2644232
280,25935 DETROIT RD,WESTLAKE,OH,44145-2453, (440)835-2650,(440)835-9201,store0280@theupsstore.com,BETWEEN COLUMBIA AND CANTERBURY IN WILLIAMSBURG SQUARE,Monday 8:30 AM-6:30 PM Tuesday 8:30 AM-6:30 PM Wednesday 8:30 AM-6:30 PM Thursday 8:30 AM-6:30 PM Friday 8:30 AM-6:30 PM Saturday 10:00 AM-6:00 PM,41.4694253,-81.9072949
281,2974 DELTA FAIR BLVD,ANTIOCH,CA,94509-4164,(925)754-5300,(925)754-5396,store0281@theupsstore.com,FOOD MAXX SHOPPING CENTER, Monday 07:30 AM-05:30 PM Tuesday 07:30 AM-05:30 PM Wednesday 07:30 AM-05:30 PM Thursday 07:30 AM-05:30 PM Friday 07:30 AM-05:30 PM Saturday 07:30 AM-03:30 PM ,38.0010412,-121.8378752
283,3938 E GRANT RD,TUCSON,AZ,85712-2559,(520)881-7600,(520)881-8734,store0283@theupsstore.com,FRY'S SHOPPING CENTER SOUTHEAST CORNER OF GRANT AND ALVERNON, Monday 7:30 AM-6:00 PM Tuesday 7:30 AM-6:00 PM Wednesday 7:30 AM-6:00 PM Thursday 7:30 AM-6:00 PM Friday 7:30 AM-6:00 PM Saturday 9:00 AM-2:30 PM ,32.2506249,-110.908022
285,"1840 41ST AVE, STE 102",CAPITOLA,CA,95010-2527,(831)462-5909,(831)462-6387,store0285@theupsstore.com,41ST AVENUE ACROSS FROM CAPITOLA MALL - NEXT TO WORLD SAVINGS, Monday 9:00 AM-6:00 PM Tuesday 9:00 AM-6:00 PM Wednesday 9:00 AM-6:00 PM Thursday 9:00 AM-6:00 PM Friday 9:00 AM-6:00 PM Saturday 10:00 AM-4:30 PM ,36.976259,-121.963832
286,100 POWDERMILL RD,ACTON,MA,01720-5932,(978)897-4800,(978)897-4804,store0286@theupsstore.com,ROUTE 62 NEAR STOP & SHOP IN POWDERMILL PLAZA, Monday 9:00 AM-6:00 PM Tuesday 9:00 AM-6:00 PM Wednesday 9:00 AM-6:00 PM Thursday 9:00 AM-6:00 PM Friday 9:00 AM-6:00 PM Saturday 10:00 AM-4:00 PM ,42.441968,-71.426692
288,3389 SHERIDAN ST,HOLLYWOOD,FL,33021-3606, (954)963-2222,(954)963-2344,store0288@theupsstore.com,SHPG CTR ON CORNER OF NORTH PARK RD & SHERIDAN (ACROSS T.Y.PARK),Monday 8:00 AM-6:00 PM Tuesday 8:00 AM-6:00 PM Wednesday 8:00 AM-6:00 PM Thursday 8:00 AM-6:00 PM Friday 8:00 AM-6:00 PM Saturday 9:00 AM-3:00 PM,26.033083,-80.177688
289,"5114 BALCONES WOODS DR, SUITE #307",AUSTIN,TX,78759-5212,(512)338-0811,(512)338-4308,store0289@theupsstore.com,MIDWAY BETWEEN JOLLYVILLE & 183, Monday 08:00 AM-06:00 PM Tuesday 08:00 AM-06:00 PM Wednesday 08:00 AM-06:00 PM Thursday 08:00 AM-06:00 PM Friday 08:00 AM-06:00 PM Saturday 09:00 AM-05:00 PM ,30.4079597,-97.745942
290,699 LEWELLING BLVD,SAN LEANDRO,CA,94579,(510)351-2227,(510)351-2879,store0290@theupsstore.com,GREENHOUSE MARKETPLACE, Monday 9:00 AM-7:00 PM Tuesday 9:00 AM-7:00 PM Wednesday 9:00 AM-7:00 PM Thursday 9:00 AM-7:00 PM Friday 9:00 AM-7:00 PM Saturday 10:00 AM-6:00 PM Sunday 11:00 AM-4:00 PM ,37.688831,-122.138523
292,11765 WEST AVE,SAN ANTONIO,TX,78216-2559,(210)377-3738,(210)377-0505,store0292@theupsstore.com,IN THE INCREDIBLE PIZZA PLAZA., Monday 8:00 AM-6:30 PM Tuesday 8:00 AM-6:30 PM Wednesday 8:00 AM-6:30 PM Thursday 8:00 AM-6:30 PM Friday 8:00 AM-6:30 PM Saturday 9:30 AM-3:30 PM ,29.5470973,-98.5081348
293,36500 FORD RD,WESTLAND,MI,48185-2211,(734)595-1288,(734)595-1185,store0293@theupsstore.com,FORD RD BETWEEN WAYNE & NEWBURGH KROGER PLAZA, Monday 09:00 AM-07:00 PM Tuesday 09:00 AM-07:00 PM Wednesday 09:00 AM-07:00 PM Thursday 09:00 AM-07:00 PM Friday 09:00 AM-07:00 PM Saturday 09:00 AM-05:00 PM ,42.3242771,-83.3996458
294,204 E 2ND AVE,SAN MATEO,CA,94401-3904,(650)344-1333,(650)344-0233,store0294@theupsstore.com,DOWNTOWN BETWEEN B STREET AND ELLSWORTH, Monday 08:30 AM-06:30 PM Tuesday 08:30 AM-06:30 PM Wednesday 08:30 AM-06:30 PM Thursday 08:30 AM-06:30 PM Friday 08:30 AM-06:30 PM Saturday 10:00 AM-06:00 PM ,37.5658643,-122.3236748
295,"850 W JAKE ALEXANDER BLVD, STE G",SALISBURY,NC,28147-1413,(704)638-0661,(704)637-8799,store0295@theupsstore.com,NOW LOCATED BESIDE HARRIS TEETER ON JAKE ALEXANDER BOULEVARD, Monday 7:30 AM-6:00 PM Tuesday 7:30 AM-6:00 PM Wednesday 7:30 AM-6:00 PM Thursday 7:30 AM-6:00 PM Friday 7:30 AM-6:00 PM Saturday 10:00 AM-4:00 PM ,35.6666587,-80.4992929
296,"6050 PEACHTREE PKWY, STE 240",NORCROSS,GA,30092-3337, (770)242-0772,(770)242-9147,store0296@theupsstore.com,CENTRE STAGE SHOPPING CENTER AT HWY 141 AND HOLCOMB BRIDGE,Monday 09:00 AM-07:00 PM Tuesday 09:00 AM-07:00 PM Wednesday 09:00 AM-07:00 PM Thursday 09:00 AM-07:00 PM Friday 09:00 AM-07:00 PM Saturday 09:00 AM-05:00 PM,33.953821,-84.2319
299,3755 AVOCADO BLVD,LA MESA,CA,91941-7301, (619)670-1002,(619)670-1004,store0299@theupsstore.com,94 AND AVOCADO,Monday 8:30 AM-6:30 PM Tuesday 8:30 AM-6:30 PM Wednesday 8:30 AM-6:30 PM Thursday 8:30 AM-6:30 PM Friday 8:30 AM-6:30 PM Saturday 9:00 AM-4:00 PM,32.747372,-116.961114
302,"2146 ROSWELL RD NE, STE 108",MARIETTA,GA,30062,(770)971-2462,(770)971-8168,store0302@theupsstore.com,2 1/2 MILES EAST OF BIG CHICKEN ON RIGHT HAND SIDE, Monday 9:00 AM-7:00 PM Tuesday 9:00 AM-7:00 PM Wednesday 9:00 AM-7:00 PM Thursday 9:00 AM-7:00 PM Friday 9:00 AM-7:00 PM Saturday 9:00 AM-5:00 PM ,33.9659008,-84.4916826
303,"16211 N SCOTTSDALE RD, STE A6A",SCOTTSDALE,AZ,85254,(480)948-9727,(480)948-9726,store0303@theupsstore.com,SOUTHEAST CORNER OF SCOTTSDALE RD & FRANK LLOYD WRIGHT!, Monday 08:00 AM-06:30 PM Tuesday 08:00 AM-06:30 PM Wednesday 08:00 AM-06:30 PM Thursday 08:00 AM-06:30 PM Friday 08:00 AM-06:30 PM Saturday 09:00 AM-04:00 PM ,33.63416,-111.923887
304,101 WEST 23RD ST,NEW YORK,NY,10011, (212)529-3131,(212)529-3511,store0304@theupsstore.com,23RD STREET BETWEEN 6TH AND 7TH AVENUES,Monday 08:30 AM-08:00 PM Tuesday 08:30 AM-08:00 PM Wednesday 08:30 AM-08:00 PM Thursday 08:30 AM-08:00 PM Friday 08:30 AM-08:00 PM Saturday 10:00 AM-06:00 PM,40.7431402,-73.9930844
306,487 E MAIN ST,MOUNT KISCO,NY,10549-3420, (914)666-4336,(914)666-3866,store0306@theupsstore.com,2 BLOCK SOUTH OF NORTHERN WESTCHESTER HOSPITAL ON 117,Monday 8:30 AM-6:00 PM Tuesday 8:30 AM-6:00 PM Wednesday 8:30 AM-6:00 PM Thursday 8:30 AM-6:00 PM Friday 8:30 AM-6:00 PM Saturday 9:00 AM-3:00 PM,41.1932321,-73.7266179
310,1324 CLARKSON CLAYTON CENTER,BALLWIN,MO,63011-2145, (636)256-8281,(636)256-8284,store0310@theupsstore.com,CORNER OF CLARKSON AND CLAYTON RDS. IN THE DIERBERGS MARKET,Monday 8:00 AM-6:30 PM Tuesday 8:00 AM-6:30 PM Wednesday 8:00 AM-6:30 PM Thursday 8:00 AM-6:30 PM Friday 8:00 AM-6:30 PM Saturday 10:00 AM-3:30 PM,38.6043539,-90.5868777
311,738 MAIN ST,WALTHAM,MA,02451,(781)893-7411,(781)893-8154,store0311@theupsstore.com,ACROSS FROM THE WALTHAM PUBLIC LIBRARY, Monday 08:30 AM-07:00 PM Tuesday 08:30 AM-07:00 PM Wednesday 08:30 AM-07:00 PM Thursday 08:30 AM-07:00 PM Friday 08:30 AM-07:00 PM Saturday 08:30 AM-02:30 PM ,42.3762143,-71.2410896
312,3380 SHERIDAN DR,AMHERST,NY,14226,(716)834-6388,(716)834-2884,store0312@theupsstore.com,SHERIDAN PLAZA AT SWEETHOME AND SHERIDAN, Monday 09:00 AM-08:00 PM Tuesday 09:00 AM-08:00 PM Wednesday 09:00 AM-08:00 PM Thursday 09:00 AM-08:00 PM Friday 09:00 AM-08:00 PM Saturday 09:00 AM-06:00 PM ,42.9800419,-78.808226
314,"3225 S MACDILL AVE, #129",TAMPA,FL,33629-8171,(813)839-1456,(813)839-2035,store0314@theupsstore.com,INSIDE PALMA CEIA VILLAGE, Monday 8:00 AM-6:30 PM Tuesday 8:00 AM-6:30 PM Wednesday 8:00 AM-6:30 PM Thursday 8:00 AM-6:30 PM Friday 8:00 AM-6:30 PM Saturday 9:00 AM-5:00 PM ,27.916021,-82.494478
316,11654 PLAZA AMERICA DR,RESTON,VA,20190-4700,(703)437-9300,(703)437-3454,store0316@theupsstore.com,PLAZA AMERICA SHOPPING CENTER NEXT TO WHOLE FOODS, Monday 09:00 AM-07:00 PM Tuesday 09:00 AM-07:00 PM Wednesday 09:00 AM-07:00 PM Thursday 09:00 AM-07:00 PM Friday 09:00 AM-07:00 PM Saturday 09:00 AM-05:00 PM ,38.951688,-77.3488886
318,696 SAN RAMON VALLEY BLVD,DANVILLE,CA,94526-4022,(925)838-0052,(925)838-4630,store0318@theupsstore.com,SYCAMORE SQUARE NEAR LUCKY'S AND CVS, Monday 7:30 AM-6:00 PM Tuesday 7:30 AM-6:00 PM Wednesday 7:30 AM-6:00 PM Thursday 7:30 AM-6:00 PM Friday 7:30 AM-6:00 PM Saturday 9:00 AM-4:00 PM ,37.812584,-121.9954571
319,304 MAIN AVE,NORWALK,CT,06851,(203)847-6166,(203)849-1868,store0319@theupsstore.com,PERRY PLAZA ACROSS FROM CVS, Monday 8:00 AM-6:30 PM Tuesday 8:00 AM-6:30 PM Wednesday 8:00 AM-6:30 PM Thursday 8:00 AM-6:30 PM Friday 8:00 AM-6:30 PM Saturday 9:00 AM-3:00 PM ,41.1357789,-73.4246246
320,850 S BOULDER HWY,HENDERSON,NV,89015-7564, (702)565-1235,(702)565-7075,store0320@theupsstore.com,"CROSS ST PALO VERDE & GREENWAY, NEXT TO SMITH'S",Monday 08:30 AM-06:30 PM Tuesday 08:30 AM-06:30 PM Wednesday 08:30 AM-06:30 PM Thursday 08:30 AM-06:30 PM Friday 08:30 AM-06:30 PM Saturday 09:00 AM-05:00 PM,36.0311754,-114.9723184
321,"4001 S DECATUR BLVD, STE 37",LAS VEGAS,NV,89103-5800, (702)871-9080,(702)871-5945,store0321@theupsstore.com,CORNER FLAMINGO AND DECATUR - 2 BLOCKS WEST OF THE STRIP,Monday 08:00 AM-06:00 PM Tuesday 08:00 AM-06:00 PM Wednesday 08:00 AM-06:00 PM Thursday 08:00 AM-06:00 PM Friday 08:00 AM-06:00 PM Saturday 08:00 AM-04:00 PM,36.117202,-115.2093
323,16526 W 78TH ST,EDEN PRAIRIE,MN,55346-4302, (952)934-7225,(952)934-6964,store0323@theupsstore.com,HIGHWAY 5 AND EDEN PRAIRIE ROAD,Monday 8:30 AM-7:00 PM Tuesday 8:30 AM-7:00 PM Wednesday 8:30 AM-7:00 PM Thursday 8:30 AM-7:00 PM Friday 8:30 AM-6:00 PM Saturday 9:00 AM-4:00 PM,44.8628106,-93.4879243
324,"2095 EXETER RD, STE 80",GERMANTOWN,TN,38138-3919,(901)756-1618,(901)756-6578,store0324@theupsstore.com,EXETER VILLAGE CTR AT POPLAR & EXETER ACROSS FROM DOLLAR TREE, Monday 08:00 AM-06:00 PM Tuesday 08:00 AM-06:00 PM Wednesday 08:00 AM-06:00 PM Thursday 08:00 AM-06:00 PM Friday 08:00 AM-06:00 PM Saturday 09:00 AM-05:00 PM ,35.0920329,-89.802483
325,351 PLEASANT ST,NORTHAMPTON,MA,01060-3900,(413)584-7490,(413)586-1890,store0325@theupsstore.com,1/2 MILE SOUTH OF MAIN STREET ON ROUTE 5., Monday 08:00 AM-06:00 PM Tuesday 08:00 AM-06:00 PM Wednesday 08:00 AM-06:00 PM Thursday 08:00 AM-06:00 PM Friday 08:00 AM-06:00 PM Saturday 09:00 AM-05:00 PM ,42.3155438,-72.6254578
326,225 CROSSROADS BLVD,CARMEL,CA,93923-8649,831.625.2800,831.625.1699,store0326@theupsstore.com,CROSSROADS SHOPPING CENTER AT HIGHWAY 1 AND RIO ROAD, Monday 8:00 AM-6:00 PM Tuesday 8:00 AM-6:00 PM Wednesday 8:00 AM-6:00 PM Thursday 8:00 AM-6:00 PM Friday 8:00 AM-6:00 PM Saturday 9:00 AM-5:00 PM Sunday 11:00 AM-4:00 PM ,36.5367959,-121.9088715
328,2778 CUMBERLAND BLVD,SMYRNA,GA,30080-3048,(770)433-1031,(770)433-0241,store0328@theupsstore.com,"HH GREGG SHOPPING CENTER, NEAR TUESDAY MORNING", Monday 9:00 AM-6:00 PM Tuesday 9:00 AM-6:00 PM Wednesday 9:00 AM-6:00 PM Thursday 9:00 AM-6:00 PM Friday 9:00 AM-6:00 PM Saturday 10:00 AM-3:00 PM ,33.8851406,-84.4767841
329,7014 E GOLF LINKS RD,TUCSON,AZ,85730-1064, (520)748-0350,(520)748-0027,store0329@theupsstore.com,FRY'S SHOPPING CENTER SW CORNER OF GOLF LINKS & KOLB,Monday 08:00 AM-06:00 PM Tuesday 08:00 AM-06:00 PM Wednesday 08:00 AM-06:00 PM Thursday 08:00 AM-06:00 PM Friday 08:00 AM-06:00 PM Saturday 09:00 AM-05:00 PM,32.1908084,-110.8435535
331,"6800 WESTGATE, STE 132",AUSTIN,TX,78745,(512)444-6466,(512)445-5331,store0331@theupsstore.com,CORNER OF WILLIAM CANNON & WEST GATE BLVDS BEHIND STARBUCKS & KFC, Monday 09:00 AM-07:00 PM Tuesday 09:00 AM-07:00 PM Wednesday 09:00 AM-07:00 PM Thursday 09:00 AM-07:00 PM Friday 09:00 AM-07:00 PM Saturday 09:00 AM-05:00 PM ,30.209276,-97.815065
333,101 W ARGONNE DR,KIRKWOOD,MO,63122,(314)966-5410,(314)966-6649,store0333@theupsstore.com,CORNER OF ARGONNE & KIRKWOOD BY TRAIN STATION (OLD MEDICINE SHOP), Monday 8:00 AM-6:30 PM Tuesday 8:00 AM-6:30 PM Wednesday 8:00 AM-6:30 PM Thursday 8:00 AM-6:30 PM Friday 8:00 AM-6:30 PM Saturday 9:30 AM-3:00 PM ,38.581476,-90.406728
334,"1579 MONROE DR, STE F",ATLANTA,GA,30324, (404)872-0621,(404)892-6832,store0334@theupsstore.com,ACROSS FROM AINSLEY MALL AT CORNER OF MONROE AND PIEDMONT,Monday 08:30 AM-06:30 PM Tuesday 08:30 AM-06:30 PM Wednesday 08:30 AM-06:30 PM Thursday 08:30 AM-06:30 PM Friday 08:30 AM-06:30 PM Saturday 09:00 AM-05:00 PM,33.7981221,-84.3692838
335,3800 DEWEY AVE,ROCHESTER,NY,14616-2515,(585)865-1660,(585)865-0447,store0335@theupsstore.com,NORTHGATE PLAZA - JUST NORTH OF ENGLISH ROAD, Monday 08:30 AM-06:00 PM Tuesday 08:30 AM-06:00 PM Wednesday 08:30 AM-06:00 PM Thursday 08:30 AM-06:00 PM Friday 08:30 AM-06:00 PM Saturday 09:00 AM-02:00 PM ,43.240303,-77.644564
336,2518 LEMAY FERRY RD,SAINT LOUIS,MO,63125-3131,(314)892-8492,(314)892-9612,store0336@theupsstore.com,IN DIERBERGS PLAZA BETWEEN REAVIS & LINDBERGH, Monday 08:30 AM-07:00 PM Tuesday 08:30 AM-07:00 PM Wednesday 08:30 AM-07:00 PM Thursday 08:30 AM-07:00 PM Friday 08:30 AM-07:00 PM Saturday 09:00 AM-03:00 PM ,38.5198032,-90.3053805
343,14080 NACOGDOCHES RD,SAN ANTONIO,TX,78247-1944,(210)590-1511,(210)655-2658,store0343@theupsstore.com,CORNER OF NACOGDOCHES AND O'CONNER, Monday 08:00 AM-06:30 PM Tuesday 08:00 AM-06:30 PM Wednesday 08:00 AM-06:30 PM Thursday 08:00 AM-06:30 PM Friday 08:00 AM-06:30 PM Saturday 09:00 AM-05:00 PM ,29.570111,-98.382042
344,7113 SAN PEDRO AVE (NORTHVIEW CONCOURSE),SAN ANTONIO,TX,78216-6219,(210) 829-1666,(210) 829-5553,store0344@theupsstore.com,ACROSS FROM PIER 1 & MURPH'S BURGER 3 BLOCKS S OF NORTH STAR MALL, Monday 08:30 AM-06:30 PM Tuesday 08:30 AM-06:30 PM Wednesday 08:30 AM-06:30 PM Thursday 08:30 AM-06:30 PM Friday 08:30 AM-06:30 PM Saturday 09:00 AM-05:00 PM ,29.511458,-98.499276
345,"1807 SANTA RITA RD, STE D",PLEASANTON,CA,94566,(925)846-0276,(925)846-0581,store0345@theupsstore.com,VALLEY PLAZA CENTER NEXT TO DONUT KING, Monday 8:15 AM-6:30 PM Tuesday 8:15 AM-6:30 PM Wednesday 8:15 AM-6:30 PM Thursday 8:15 AM-6:30 PM Friday 8:15 AM-6:30 PM Saturday 9:30 AM-4:30 PM ,37.677792,-121.875157
346,4008 LOUETTA RD,SPRING,TX,77388-4405, (281)376-5666,(281)288-1239,store0346@theupsstore.com,LOUETTA RD AND ELLA,Monday 8:30 AM-7:00 PM Tuesday 8:30 AM-7:00 PM Wednesday 8:30 AM-7:00 PM Thursday 8:30 AM-7:00 PM Friday 8:30 AM-7:00 PM Saturday 10:00 AM-4:00 PM,30.0485681,-95.4737954
350,"3800 N MESA, STE A-2",EL PASO,TX,79902, (915)545-2626,(915)545-2697,store0350@theupsstore.com,MESA & SUNBOWL/MESITA IN THE UNIVERSITY PLAZA ACROSS FROM LUBY'S,Monday 08:00 AM-06:30 PM Tuesday 08:00 AM-06:30 PM Wednesday 08:00 AM-06:30 PM Thursday 08:00 AM-06:30 PM Friday 08:00 AM-06:00 PM Saturday 09:00 AM-03:00 PM,31.787397,-106.505689
351,18627 BROOKHURST ST,FOUNTAIN VALLEY,CA,92708-6748, (714)968-4087,(714)963-2105,store0351@theupsstore.com,ALBERTSON'S SHOPPING CENTER AT CORNER OF BROOKHURST AND ELLIS,Monday 08:00 AM-06:00 PM Tuesday 08:00 AM-06:00 PM Wednesday 08:00 AM-06:00 PM Thursday 08:00 AM-06:00 PM Friday 08:00 AM-06:00 PM Saturday 08:30 AM-04:30 PM,33.6924327,-117.9542688
352,"4227 S MERIDIAN, STE C",PUYALLUP,WA,98373-5959,(253)840-0807,(253)840-0645,store0352@theupsstore.com,MERIDIAN PLAZA CENTER, Monday 08:00 AM-07:00 PM Tuesday 08:00 AM-07:00 PM Wednesday 08:00 AM-07:00 PM Thursday 08:00 AM-07:00 PM Friday 08:00 AM-07:00 PM Saturday 09:00 AM-05:00 PM Sunday 10:00 AM-04:00 PM ,47.1523816,-122.2929474
353,8900-AN VISCOUNT,EL PASO,TX,79925-5800, (915)592-2498,(915)592-5142,store0353@theupsstore.com,ONE BLOCK EAST OF HAWKINS BOULEVARD,Monday 08:00 AM-06:00 PM Tuesday 08:00 AM-06:00 PM Wednesday 08:00 AM-06:00 PM Thursday 08:00 AM-06:00 PM Friday 08:00 AM-06:00 PM Saturday 08:00 AM-04:00 PM,31.78991,-106.398829
354,"7050 W PALMETTO PARK RD, #4",BOCA RATON,FL,33433-3461, (561)338-0407,(561)338-0409,store0354@theupsstore.com,SOUTHWEST CORNER OF PALMETTO PARK AND POWERLINE,Monday 8:30 AM-6:30 PM Tuesday 8:30 AM-6:30 PM Wednesday 8:30 AM-6:30 PM Thursday 8:30 AM-6:30 PM Friday 8:30 AM-6:30 PM Saturday 9:00 AM-3:00 PM,26.3501879,-80.1567745
355,"10455 N CENTRAL EXPRESSWAY, STE 109-B",DALLAS,TX,75231,(214)692-7678,(214)692-1411,store0355@theupsstore.com,AT NORTH CENTRAL EXPRESSWAY AND MEADOW ROAD, Monday 08:30 AM-06:30 PM Tuesday 08:30 AM-06:30 PM Wednesday 08:30 AM-06:30 PM Thursday 08:30 AM-06:30 PM Friday 08:30 AM-06:30 PM Saturday 09:00 AM-05:00 PM ,32.889642,-96.7715263
356,9891 MONTGOMERY RD,CINCINNATI,OH,45242-5322,(513)791-1180,(513)791-0185,store0356@theupsstore.com,KROGER SHOPPING CENTER, Monday 09:00 AM-07:00 PM Tuesday 09:00 AM-07:00 PM Wednesday 09:00 AM-07:00 PM Thursday 09:00 AM-07:00 PM Friday 09:00 AM-07:00 PM Saturday 09:00 AM-05:00 PM ,39.237274,-84.350783
357,"5900 SOM CENTER RD, UNIT #12",WILLOUGHBY,OH,44094-3044,(440)943-5544,(440)943-6326,store0357@theupsstore.com,INTERSECTION OF SOM CENTER ROAD AND ROUTE 84, Monday 9:00 AM-7:00 PM Tuesday 9:00 AM-7:00 PM Wednesday 9:00 AM-7:00 PM Thursday 9:00 AM-7:00 PM Friday 9:00 AM-7:00 PM Saturday 9:00 AM-5:00 PM ,41.607295,-81.440886
359,1007B WEST COLLEGE AVE,SANTA ROSA,CA,95401-5036,(707)578-6062,(707)578-3915,store0359@theupsstore.com,G&G SHOPPING CENTER NEAR UNION HOTEL RESTAURANT, Monday 8:30 AM-6:30 PM Tuesday 8:30 AM-6:30 PM Wednesday 8:30 AM-6:30 PM Thursday 8:30 AM-6:30 PM Friday 8:30 AM-6:30 PM Saturday 9:00 AM-5:00 PM ,38.4455668,-122.7397781
360,"5694 MISSION CENTER RD, STE 602",SAN DIEGO,CA,92108, (619)298-8213,(619)298-8215,store0360@theupsstore.com,CORNER OF FRIARS ROAD AND MISSION CENTER - NEXT TO RALPHS,Monday 08:00 AM-07:00 PM Tuesday 08:00 AM-07:00 PM Wednesday 08:00 AM-07:00 PM Thursday 08:00 AM-07:00 PM Friday 08:00 AM-07:00 PM Saturday 09:00 AM-05:00 PM Sunday 11:00 AM-05:00 PM,32.7761939,-117.154958
361,"601 VAN NESS AVE, STE E (OPERA PLAZA)",SAN FRANCISCO,CA,94102,(415)775-6644,(415)775-3082,store0361@theupsstore.com,OPERA PLAZA - BETWEEN GOLDEN GATE AVE AND TURK, Monday 08:00 AM-06:30 PM Tuesday 08:00 AM-06:30 PM Wednesday 08:00 AM-06:30 PM Thursday 08:00 AM-06:30 PM Friday 08:00 AM-06:30 PM Saturday 10:00 AM-05:00 PM ,37.781332,-122.42074
363,2117 BUFFALO RD,ROCHESTER,NY,14624-1507,(585)247-7840,(585)247-0081,store0363@theupsstore.com,WESTMORE PLAZA AT CORNER OF BUFFALO AND PIXLEY ACROSS TOPS MARKET, Monday 09:00 AM-06:00 PM Tuesday 09:00 AM-06:00 PM Wednesday 09:00 AM-06:00 PM Thursday 09:00 AM-06:00 PM Friday 09:00 AM-06:00 PM Saturday 09:00 AM-03:00 PM ,43.1477542,-77.7087421
365,6632 TELEGRAPH RD,BLOOMFIELD HILLS,MI,48301-3012,(248)737-4433,(248)737-4665,store0365@theupsstore.com,BLOOMFIELD PLAZA - BY STEVE'S DELI, Monday 8:00 AM-6:30 PM Tuesday 8:00 AM-6:30 PM Wednesday 8:00 AM-6:30 PM Thursday 8:00 AM-6:30 PM Friday 8:00 AM-6:30 PM Saturday 9:00 AM-5:00 PM ,42.5424163,-83.2851544
368,123 TOWN SQUARE PLACE,JERSEY CITY,NJ,07310-1756, (201)420-6633,(201)420-6555,store0368@theupsstore.com,ACROSS FROM PAVONIA/NEWPORT PATH TRAIN STATION,Monday 07:30 AM-07:30 PM Tuesday 07:30 AM-07:30 PM Wednesday 07:30 AM-07:30 PM Thursday 07:30 AM-07:30 PM Friday 07:30 AM-07:30 PM Saturday 09:00 AM-05:00 PM,40.7265175,-74.0330463
370,236 WEST PORTAL AVE,SAN FRANCISCO,CA,94127,(415)665-5085,(415)665-5933,store0370@theupsstore.com,BETWEEN 14TH AND VICENTE NEXT TO RITE AID AND BANK OF AMERICA, Monday 08:30 AM-06:30 PM Tuesday 08:30 AM-06:30 PM Wednesday 08:30 AM-06:30 PM Thursday 08:30 AM-06:30 PM Friday 08:30 AM-06:30 PM Saturday 09:00 AM-05:00 PM ,37.7386032,-122.4685898
372,1670 S ROBERT ST,WEST SAINT PAUL,MN,55118-3918,(651)451-0611,(651)451-8963,store0372@theupsstore.com,NEXT TO RAINBOW FOODS, Monday 8:30 AM-7:00 PM Tuesday 8:30 AM-7:00 PM Wednesday 8:30 AM-7:00 PM Thursday 8:30 AM-7:00 PM Friday 8:30 AM-7:00 PM Saturday 10:00 AM-4:00 PM ,44.8956937,-93.0805789
373,8816 MANCHESTER RD,BRENTWOOD,MO,63144-2602,(314)962-1622,(314)962-7240,store0373@theupsstore.com,SCHNUCKS BRENTWOOD PLAZA, Monday 08:00 AM-06:30 PM Tuesday 08:00 AM-06:30 PM Wednesday 08:00 AM-06:30 PM Thursday 08:00 AM-06:30 PM Friday 08:00 AM-06:30 PM Saturday 10:00 AM-04:00 PM ,38.6125539,-90.3501097
375,"840 S RANCHO DR, #4",LAS VEGAS,NV,89106, (702)870-7260,(702)870-9597,store0375@theupsstore.com,TOWN & COUNTRY SHOPPING CENTER AT RANCHO AND CHARLESTON,Monday 07:30 AM-05:30 PM Tuesday 07:30 AM-05:30 PM Wednesday 07:30 AM-05:30 PM Thursday 07:30 AM-05:30 PM Friday 07:30 AM-05:30 PM Saturday 09:00 AM-04:00 PM,36.1615262,-115.1728406
377,353 JONESTOWN RD,WINSTON-SALEM,NC,27104-4620,(336)760-4832,(336)760-4834,store0377@theupsstore.com,CENTRE STAGE SHOPPING CENTER AT HIGHWAY 421 AND JONESTOWN EXIT, Monday 8:00 AM-6:30 PM Tuesday 8:00 AM-6:30 PM Wednesday 8:00 AM-6:30 PM Thursday 8:00 AM-6:30 PM Friday 8:00 AM-6:30 PM Saturday 10:00 AM-3:30 PM ,36.0755627,-80.3362377
379,34208 AURORA RD,SOLON,OH,44139-3803, (440)248-7994,(440)248-7996,store0379@theupsstore.com,SOLAR SHOPP CENTER AT CORNER OF 91 AND 43,Monday 08:00 AM-06:00 PM Tuesday 08:00 AM-06:00 PM Wednesday 08:00 AM-06:00 PM Thursday 08:00 AM-06:00 PM Friday 08:00 AM-06:00 PM Saturday 08:00 AM-04:00 PM,41.3847805,-81.4357198
385,24307 MAGIC MOUNTAIN PKWY,VALENCIA,CA,91355-3402, (661)253-0133,(661)253-0135,store0385@theupsstore.com,RIVEROAKS SHOPPING CENTER,Monday 9:00 AM-6:00 PM Tuesday 9:00 AM-6:00 PM Wednesday 9:00 AM-6:00 PM Thursday 9:00 AM-6:00 PM Friday 9:00 AM-6:00 PM Saturday 10:00 AM-5:00 PM,34.4203021,-118.5640164
386,4600 CHIPPEWA BLDG N SOUTHTOWN PLZ,SAINT LOUIS,MO,63116, (314)351-6615,(314)351-7258,store0386@theupsstore.com,"1 BLOCK EAST OF KINGSHIGHWAY, BEHIND STEAK N SHAKE",Monday 8:30 AM-6:00 PM Tuesday 8:30 AM-6:00 PM Wednesday 8:30 AM-6:00 PM Thursday 8:30 AM-6:00 PM Friday 8:30 AM-6:00 PM Saturday 8:30 AM-2:00 PM Sunday 1:00 AM-6:00 AM,38.590394,-90.270674
391,"2771 MONUMENT RD, STE 29",JACKSONVILLE,FL,32225-3514, (904)646-4941,(904)646-4951,store0391@theupsstore.com,COBBLESTONE SHOPPING CTR AT CORNER OF MONUMENT & MCCORMICK,Monday 8:30 AM-7:00 PM Tuesday 8:30 AM-7:00 PM Wednesday 8:30 AM-7:00 PM Thursday 8:30 AM-7:00 PM Friday 8:30 AM-7:00 PM Saturday 10:00 AM-4:00 PM,30.3621902,-81.5016861
392,1937 W PALMETTO ST,FLORENCE,SC,29501,(843)667-4404,(843)667-4528,store0392@theupsstore.com,FLORENCE MALL, Monday 08:00 AM-06:30 PM Tuesday 08:00 AM-06:30 PM Wednesday 08:00 AM-06:30 PM Thursday 08:00 AM-06:30 PM Friday 08:00 AM-06:30 PM Saturday 09:00 AM-04:00 PM ,34.1885861,-79.8066741
393,"12407 MOPAC EXPWY N, #100",AUSTIN,TX,78758,(512)834-2633,(512)834-8995,store0393@theupsstore.com,CORNER OF PARMER LN & MOPAC EXPWY IN HEB SHOPPING CENTER, Monday 09:00 AM-07:00 PM Tuesday 09:00 AM-07:00 PM Wednesday 09:00 AM-07:00 PM Thursday 09:00 AM-07:00 PM Friday 09:00 AM-07:00 PM Saturday 09:00 AM-05:00 PM ,30.417534,-97.7030972
395,"2810 E TRINITY MILLS, STE 209",CARROLLTON,TX,75006-2369,(972)418-6376,(972)416-9504,store0395@theupsstore.com,SOUTHEAST CORNER OF TRINITY MILLS AND MARSH, Monday 08:00 AM-06:30 PM Tuesday 08:00 AM-06:30 PM Wednesday 08:00 AM-06:30 PM Thursday 08:00 AM-06:30 PM Friday 08:00 AM-06:30 PM Saturday 10:00 AM-04:00 PM ,32.9853359,-96.853667
396,1564-A FITZGERALD DR,PINOLE,CA,94564-2229, (510)222-7780,(510)222-0158,store0396@theupsstore.com,PINOLE VISTA SHOPPING CENTER - BETWEEN LUCKY STORE AND BIG 5,Monday 8:00 AM-6:00 PM Tuesday 8:00 AM-6:00 PM Wednesday 8:00 AM-6:00 PM Thursday 8:00 AM-6:00 PM Friday 8:00 AM-6:00 PM Saturday 9:00 AM-4:00 PM,37.9912591,-122.3013148
398,551 ROOSEVELT RD,GLEN ELLYN,IL,60137,(630) 858-7571,(630) 858-9010,store0398@theupsstore.com,MARKET PLAZA SHOPPING CENTER BETWEEN MAIN ST AND PARK BLVD, Monday 08:00 AM-07:00 PM Tuesday 08:00 AM-07:00 PM Wednesday 08:00 AM-07:00 PM Thursday 08:00 AM-07:00 PM Friday 08:00 AM-07:00 PM Saturday 09:00 AM-04:00 PM ,41.85935,-88.0646271
400,"7770 REGENTS RD, STE 113",SAN DIEGO,CA,92122-1937, (858)453-7331,(858)453-7335,store0400@theupsstore.com,VONS LA JOLLA COLONY PLAZA,Monday 8:00 AM-7:00 PM Tuesday 8:00 AM-7:00 PM Wednesday 8:00 AM-7:00 PM Thursday 8:00 AM-7:00 PM Friday 8:00 AM-7:00 PM Saturday 9:00 AM-5:00 PM,32.8628082,-117.2244469
401,"800 S PACIFIC COAST HWY, #8",REDONDO BEACH,CA,90277-4778, (310)540-6323,(310)540-2607,store0401@theupsstore.com,ON THE PCH BETWEEN AVENUE A AND KNOB HILL,Monday 8:30 AM-6:30 PM Tuesday 8:30 AM-6:30 PM Wednesday 8:30 AM-6:30 PM Thursday 8:30 AM-6:30 PM Friday 8:30 AM-6:30 PM Saturday 9:00 AM-5:00 PM,33.828412,-118.385281
404,2000 PENNSYLVANIA AVE NW,WASHINGTON,DC,20006-1811,(202)457-8166,(202)429-2852,store0404@theupsstore.com,ON THE GEORGE WASHINGTON UNIVERSITY CAMPUS, Monday 9:00 AM-7:00 PM Tuesday 9:00 AM-7:00 PM Wednesday 9:00 AM-7:00 PM Thursday 9:00 AM-7:00 PM Friday 9:00 AM-7:00 PM Saturday 10:00 AM-5:00 PM ,38.900352,-77.045778
406,19425 SOLEDAD CANYON RD,CANYON COUNTRY,CA,91351-2664,(661)252-1519,(661)252-8912,store0406@theupsstore.com,"IN CANYON CENTER NEAR TJ MAXX, NEXT DOOR TO FAMILY FLORIST", Monday 8:30 AM-6:00 PM Tuesday 8:30 AM-6:00 PM Wednesday 8:30 AM-6:00 PM Thursday 8:30 AM-6:00 PM Friday 8:30 AM-6:00 PM Saturday 10:00 AM-4:00 PM ,34.4157985,-118.4745186
407,"3208 EAST COLONIAL DR, STE C",ORLANDO,FL,32803-5122,(407)897-3542,(407)898-8209,store0407@theupsstore.com,ACROSS FROM FASHION SQUARE MALL IN COLONIAL LANDINGS SHOPPING CTR, Monday 8:30 AM-7:00 PM Tuesday 8:30 AM-7:00 PM Wednesday 8:30 AM-7:00 PM Thursday 8:30 AM-7:00 PM Friday 8:30 AM-6:00 PM Saturday 9:30 AM-4:30 PM ,28.5532386,-81.3435041
408,"515 E GRANT RD, #141",TUCSON,AZ,85705-5774, (520)620-1099,(520)628-7503,store0408@theupsstore.com,NW CORNER OF 1ST AVE & GRANT RD FRY'S SHOPPING CENTER,Monday 8:00 AM-6:00 PM Tuesday 8:00 AM-6:00 PM Wednesday 8:00 AM-6:00 PM Thursday 8:00 AM-6:00 PM Friday 8:00 AM-6:00 PM Saturday 9:00 AM-5:00 PM,32.251026,-110.962984
410,5722 S FLAMINGO RD,COOPER CITY,FL,33330-3206, (954)680-9592,(954)434-4991,store0410@theupsstore.com,CORNER OF STIRLING AND FLAMINGO RD IN COUNTRYSIDE SHOPS,Monday 8:30 AM-6:00 PM Tuesday 8:30 AM-6:00 PM Wednesday 8:30 AM-6:00 PM Thursday 8:30 AM-6:00 PM Friday 8:30 AM-6:00 PM Saturday 10:00 AM-4:00 PM,26.049624,-80.3130376
411,340 COOLEY ST,SPRINGFIELD,MA,01128-1144,(413)782-2277,(413)783-4011,store0411@theupsstore.com,5 TOWN PLAZA BETWEEN BIG Y AND RADIO SHACK, Monday 8:00 AM-6:00 PM Tuesday 8:00 AM-6:00 PM Wednesday 8:00 AM-6:00 PM Thursday 8:00 AM-6:00 PM Friday 8:00 AM-6:00 PM Saturday 9:00 AM-5:00 PM ,42.0959159,-72.4981176
412,6026 KALAMAZOO AVE,KENTWOOD,MI,49508,(616)554-2039,(616)554-1372,store0412@theupsstore.com,60TH & KALAMAZOO AVE SE (NEXT TO WALGREEN'S), Monday 08:00 AM-06:30 PM Tuesday 08:00 AM-06:30 PM Wednesday 08:00 AM-06:30 PM Thursday 08:00 AM-06:30 PM Friday 08:00 AM-06:30 PM Saturday 09:00 AM-02:30 PM ,42.8546152,-85.6248848
413,"2785 PACIFIC COAST HWY, STE E",TORRANCE,CA,90505-7060, (310)530-8411,(310)530-0326,store0413@theupsstore.com,1/2 BLOCK FROM CRENSHAW NEXT TO SMART & FINAL,Monday 8:30 AM-7:00 PM Tuesday 8:30 AM-7:00 PM Wednesday 8:30 AM-7:00 PM Thursday 8:30 AM-7:00 PM Friday 8:30 AM-7:00 PM Saturday 10:00 AM-3:30 PM,33.7940326,-118.3357683
415,15941 SOUTH HARLEM AVE,TINLEY PARK,IL,60477-1609,(708)429-7060,(708)429-9828,store0415@theupsstore.com,TINLEY PARK PLAZA LOCATED AT SE CORNER OF 159TH & HARLEM AVE, Monday 8:00 AM-7:00 PM Tuesday 8:00 AM-7:00 PM Wednesday 8:00 AM-7:00 PM Thursday 8:00 AM-7:00 PM Friday 8:00 AM-7:00 PM Saturday 9:00 AM-4:00 PM ,41.601463,-87.7939746
417,8362 PINES BLVD,PEMBROKE PINES,FL,33024-6600,(954)436-9990,(954)436-9924,store0417@theupsstore.com,SW CORNER OF PINES & UNIVERSITY IN THE SAME PLAZA AS CAFE IGUANA, Monday 8:00 AM-6:30 PM Tuesday 8:00 AM-6:30 PM Wednesday 8:00 AM-6:30 PM Thursday 8:00 AM-6:30 PM Friday 8:00 AM-6:30 PM Saturday 9:30 AM-3:30 PM ,26.0088383,-80.2553589
418,16478 BEACH BLVD,WESTMINSTER,CA,92683-7860,(714)842-5513,(714)842-7325,store0418@theupsstore.com,PAVILIONS TARGET SHOPPING CENTER AT BEACH AND HEIL, Monday 09:00 AM-07:00 PM Tuesday 09:00 AM-07:00 PM Wednesday 09:00 AM-06:00 PM Thursday 09:00 AM-07:00 PM Friday 09:00 AM-07:00 PM Saturday 09:30 AM-07:00 PM ,33.747456,-117.989408
421,"123 W BLOOMINGDALE AVE, #1021",BRANDON,FL,33511, (813)689-4998,(813)689-4328,store0421@theupsstore.com,BLOOMINGDALE COMMONS AT CORNER OF BLOOMINGDALE AND JOHN MOORE RD,Monday 07:30 AM-06:30 PM Tuesday 08:00 AM-06:30 PM Wednesday 07:30 AM-06:30 PM Thursday 08:00 AM-06:30 PM Friday 07:30 AM-06:30 PM Saturday 10:00 AM-02:00 PM,27.893565,-82.2863574
423,42015 FORD RD,CANTON,MI,48187,(734)981-8200,(734)981-8205,store0423@theupsstore.com,"NEXT TO CHUCK E CHEESE & MONGOLIAN BBQ, SE CORNER OF FORD & LILLY", Monday 09:00 AM-07:00 PM Tuesday 09:00 AM-07:00 PM Wednesday 09:00 AM-07:00 PM Thursday 09:00 AM-07:00 PM Friday 09:00 AM-07:00 PM Saturday 09:00 AM-05:00 PM ,42.3226766,-83.4562937
424,396 WASHINGTON ST,WELLESLEY HILLS,MA,02481-6209, (781)237-7744,(781)237-4499,store0424@theupsstore.com,NEXT TO THE LA RIVERIA AT FOREST STREET INTERSECTION ON ROUTE 16,Monday 8:30 AM-6:30 PM Tuesday 8:30 AM-6:30 PM Wednesday 8:30 AM-6:30 PM Thursday 8:30 AM-6:30 PM Friday 8:30 AM-6:30 PM Saturday 9:00 AM-4:30 PM,42.3080512,-71.2788914
426,"951 OLD COUNTY RD, STE 2",BELMONT,CA,94002-2760,(650)598-9611,(650)598-9671,store0426@theupsstore.com,BEHIND WENDY'S IN BELMONT, Monday 08:00 AM-06:30 PM Tuesday 08:00 AM-06:30 PM Wednesday 08:00 AM-06:30 PM Thursday 08:00 AM-06:30 PM Friday 08:00 AM-06:30 PM Saturday 09:00 AM-03:30 PM ,37.521487,-122.275064
427,2607 SOUTH WOODLAND BLVD,DELAND,FL,32720-7001, (386)738-3009,(386)738-4302,store0427@theupsstore.com,VOLUSIA REGIONAL SHOPPING CENTER NEXT T.J. MAXX,Monday 08:30 AM-07:00 PM Tuesday 08:30 AM-07:00 PM Wednesday 08:30 AM-07:00 PM Thursday 08:30 AM-07:00 PM Friday 08:30 AM-07:00 PM Saturday 09:00 AM-03:00 PM,28.9819724,-81.2993275
428,2004 E IRVINGTON RD,TUCSON,AZ,85714-1809, (520)889-0077,(520)294-7794,store0428@theupsstore.com,INTERSECTION OF CAMPBELL AND IRVINGTON,Monday 07:30 AM-06:00 PM Tuesday 07:30 AM-06:00 PM Wednesday 07:30 AM-06:00 PM Thursday 07:30 AM-06:00 PM Friday 07:30 AM-06:00 PM Saturday 09:00 AM-03:00 PM,32.1632525,-110.942262
430,2764 N GREEN VALLEY PKWY,HENDERSON,NV,89014-2121,(702)454-5220,(702)454-4391,store0430@theupsstore.com,SE CORNER OF E SUNSET RD & N GREEN VALLEY PARKWAY, Monday 8:00 AM-6:00 PM Tuesday 8:00 AM-6:00 PM Wednesday 8:00 AM-6:00 PM Thursday 8:00 AM-6:00 PM Friday 8:00 AM-6:00 PM Saturday 8:30 AM-4:30 PM ,36.0704872,-115.0823245
431,1032 IRVING ST,SAN FRANCISCO,CA,94122-2200,(415)566-2660,(415)566-4311,store0431@theupsstore.com,BETWEEN 11TH AVE AND 12TH AVE ONE BLOCK FROM GOLDEN GATE PARK, Monday 08:30 AM-06:30 PM Tuesday 08:30 AM-06:30 PM Wednesday 08:30 AM-06:30 PM Thursday 08:30 AM-06:30 PM Friday 08:30 AM-06:30 PM Saturday 09:00 AM-05:00 PM ,37.7640109,-122.469104
432,"400 PUTNAM PIKE, STE J",SMITHFIELD,RI,02917-2408, (401)231-3330,(401)231-0320,store0432@theupsstore.com,ROUTE 44 1/2 MILE WEST OF I295 NEXT TO BROOKS ACROSS FROM TJ MAXX,Monday 08:00 AM-06:00 PM Tuesday 08:00 AM-06:00 PM Wednesday 08:00 AM-06:00 PM Thursday 08:00 AM-06:00 PM Friday 08:00 AM-06:00 PM Saturday 09:00 AM-05:00 PM,41.869616,-71.528707
434,4885 MC KNIGHT RD,PITTSBURGH,PA,15237-3400,(412)369-9200,(412)369-9204,store0434@theupsstore.com,MCKNIGHT-SIEBERT SHOPPING CENTER-5 MILES N OF DOWNTOWN PITTSBURGH, Monday 8:30 AM-7:00 PM Tuesday 8:30 AM-7:00 PM Wednesday 8:30 AM-7:00 PM Thursday 8:30 AM-7:00 PM Friday 8:30 AM-6:00 PM Saturday 9:30 AM-5:00 PM ,40.530172,-80.010464
438,177 US HWY 1,TEQUESTA,FL,33469-2737,(561) 746-3663,(561) 746-3933,store0438@theupsstore.com,U.S. 1 AND TEQUESTA DR - TEQUESTA SHOPPES, Monday 8:30 AM-6:30 PM Tuesday 8:30 AM-6:30 PM Wednesday 8:30 AM-6:30 PM Thursday 8:30 AM-6:30 PM Friday 8:30 AM-6:30 PM Saturday 9:00 AM-5:00 PM ,26.9622748,-80.0845347
441,"6400 BALTIMORE NATIONAL PIKE, STE 170A",BALTIMORE,MD,21228-3915, (410)744-9406,(410)744-9409,store0441@theupsstore.com,LOCATED ON RTE 40 WEST IN THE WESTPARK SHOPPING CENTER,Monday 9:00 AM-6:30 PM Tuesday 9:00 AM-6:30 PM Wednesday 9:00 AM-6:30 PM Thursday 9:00 AM-6:30 PM Friday 9:00 AM-6:00 PM Saturday 10:00 AM-3:00 PM,39.2850279,-76.756735
442,"6336 N ORACLE RD, #326",TUCSON,AZ,85704,(520)742-6211,(520)575-8733,store0442@theupsstore.com,ON SE CORNER OF ORACLE AND ORANGE GROVE NEAR BED BATH & BEYOND, Monday 08:00 AM-06:00 PM Tuesday 08:00 AM-06:00 PM Wednesday 08:00 AM-06:00 PM Thursday 08:00 AM-06:00 PM Friday 08:00 AM-06:00 PM Saturday 09:00 AM-05:00 PM ,32.322175,-110.973149
443,21175 TOMBALL PKWY,HOUSTON,TX,77070-1655, (281)320-0334,(281)251-5904,store0443@theupsstore.com,LAKEWOOD FOREST SHOPPING CENTER AT LOUETTA AND 249,Monday 08:30 AM-06:30 PM Tuesday 08:30 AM-06:30 PM Wednesday 08:30 AM-06:30 PM Thursday 08:30 AM-06:30 PM Friday 08:30 AM-06:30 PM Saturday 09:00 AM-05:00 PM,29.9991906,-95.5814517
444,1040 1ST AVE,NEW YORK,NY,10022-2902,(212)688-8881,(212)688-8849,store0444@theupsstore.com,1ST AVENUE BETWEEN 56TH AND 57TH, Monday 09:00 AM-07:30 PM Tuesday 09:00 AM-07:30 PM Wednesday 09:00 AM-07:30 PM Thursday 09:00 AM-07:30 PM Friday 09:00 AM-07:30 PM Saturday 10:00 AM-04:00 PM ,40.7580906,-73.9630505
446,1534 PLAZA LN,BURLINGAME,CA,94010,(650) 692-0820,(650 )692-0828,store0446@theupsstore.com,BURLINGAME PLAZA SHOPPING CENTER AT TROUSDALE AND EL CAMINO REAL, Monday 8:00 AM-6:00 PM Tuesday 8:00 AM-6:00 PM Wednesday 8:00 AM-6:00 PM Thursday 8:00 AM-6:00 PM Friday 8:00 AM-6:00 PM Saturday 9:00 AM-4:00 PM ,37.5949955,-122.3853142
447,"875 ISLAND DR, STE A",ALAMEDA,CA,94502,(510)522-1234,(510)522-1942,store0447@theupsstore.com,HARBOR BAY ISLE SHOPPING CENTER BEHIND SUBWAY, Monday 8:30 AM-6:30 PM Tuesday 8:30 AM-6:30 PM Wednesday 8:30 AM-6:30 PM Thursday 8:30 AM-6:30 PM Friday 8:30 AM-6:30 PM Saturday 9:00 AM-4:30 PM ,37.7377912,-122.2387293
448,43 RIVERSIDE AVE,MEDFORD,MA,02155,(781)396-2550,(781)396-2545,store0448@theupsstore.com,MEDFORD SQUARE MALL, Monday 8:30 AM-7:00 PM Tuesday 8:30 AM-7:00 PM Wednesday 8:30 AM-7:00 PM Thursday 8:30 AM-7:00 PM Friday 8:30 AM-7:00 PM Saturday 9:00 AM-4:00 PM ,42.4174554,-71.1072026
454,"266 RESERVATION RD, SUITE F",MARINA,CA,93933, (831)384-9516,(831)384-9535,store0454@theupsstore.com,SAVEMART SHOPPING CENTER,Monday 8:30 AM-6:30 PM Tuesday 8:30 AM-6:30 PM Wednesday 8:30 AM-6:30 PM Thursday 8:30 AM-6:30 PM Friday 8:30 AM-6:30 PM Saturday 9:00 AM-5:00 PM,36.6858016,-121.7960043
455,2425 N CENTER ST,HICKORY,NC,28601-1320,(828)322-9005,(828)322-1281,store0455@theupsstore.com,HIGHWAY 127 NORTH NEXT TO FIREHOUSE SUBS, Monday 08:00 AM-06:00 PM Tuesday 08:00 AM-06:00 PM Wednesday 08:00 AM-06:00 PM Thursday 08:00 AM-06:00 PM Friday 08:00 AM-06:00 PM Saturday 09:00 AM-05:00 PM ,35.7644682,-81.3327929
458,"2550 SANDY PLAINS RD, STE 225",MARIETTA,GA,30066, (770)977-2569,(770)971-1302,store0458@theupsstore.com,SPRAYBERRY SQUARE,Monday 8:30 AM-6:00 PM Tuesday 8:30 AM-6:00 PM Wednesday 8:30 AM-6:00 PM Thursday 8:30 AM-6:00 PM Friday 8:30 AM-6:00 PM Saturday 10:00 AM-3:00 PM,34.011742,-84.495056
459,"484 WASHINGTON ST, STE B",MONTEREY,CA,93940-3052,(831)646-5445,(831)646-0951,store0459@theupsstore.com,DOWNTOWN MONTEREY 2 BLOCKS FROM ALVARADO AT WASHINGTON AND PEARL, Monday 08:00 AM-06:00 PM Tuesday 08:00 AM-06:00 PM Wednesday 08:00 AM-06:00 PM Thursday 08:00 AM-06:00 PM Friday 08:00 AM-06:00 PM Saturday 10:00 AM-02:00 PM ,36.5981875,-121.8931078
460,11220 W FLORISSANT,FLORISSANT,MO,63033-6741,(314)831-8300,(314)831-3182,store0460@theupsstore.com,I-270 AND WEST FLORISSANT IN THE CLOCKTOWER PLAZA, Monday 08:30 AM-07:00 PM Tuesday 08:30 AM-07:00 PM Wednesday 08:30 AM-07:00 PM Thursday 08:30 AM-07:00 PM Friday 08:30 AM-07:00 PM Saturday 09:00 AM-03:00 PM ,38.7735899,-90.2799103
462,52 WESTERVILLE SQUARE,WESTERVILLE,OH,43081,(614)898-0160,(614)898-0120,store0462@theupsstore.com,NEXT TO BIGLOTS AND MCL CAFETERIA, Monday 08:30 AM-07:00 PM Tuesday 08:30 AM-07:00 PM Wednesday 08:30 AM-07:00 PM Thursday 08:30 AM-07:00 PM Friday 08:30 AM-07:00 PM Saturday 09:00 AM-03:00 PM ,40.1102,-82.923229
463,113 MC HENRY RD,BUFFALO GROVE,IL,60089-1796,(847)459-7060,(847)459-7480,store0463@theupsstore.com,JEWEL OSCO SHOPPING CENTER AT NE CORNER OF LAKE COOK AND MCHENRY, Monday 8:30 AM-7:00 PM Tuesday 8:30 AM-7:00 PM Wednesday 8:30 AM-7:00 PM Thursday 8:30 AM-7:00 PM Friday 8:30 AM-7:00 PM Saturday 8:30 AM-3:30 PM Sunday 10:30 AM-3:00 PM ,42.156399,-87.96412
465,54 DANBURY RD ROUTE 35,RIDGEFIELD,CT,06877,(203)438-7200,(203)438-7275,store0465@theupsstore.com,JUST BELOW DUNKIN DONUTS, Monday 8:00 AM-6:00 PM Tuesday 8:00 AM-6:00 PM Wednesday 8:00 AM-6:00 PM Thursday 8:00 AM-6:00 PM Friday 8:00 AM-6:00 PM Saturday 9:00 AM-5:00 PM ,41.286566,-73.497205
467,"931 VILLAGE BLVD, STE 905",WEST PALM BEACH,FL,33409-1939,(561) 478-7048,(561) 686-1838,store0467@theupsstore.com,VILLAGE COMMONS/PUBLIX JUST OFF PALM BEACH LAKES BLVD, Monday 8:30 AM-6:30 PM Tuesday 8:30 AM-6:30 PM Wednesday 8:30 AM-6:30 PM Thursday 8:30 AM-6:30 PM Friday 8:30 AM-6:30 PM Saturday 9:00 AM-5:00 PM ,26.7148543,-80.1005688
469,"9800 TOPANGA CANYON BLVD, STE D",CHATSWORTH,CA,91311, (818)709-1858,(818)709-1869,store0469@theupsstore.com,SOUTHEAST CORNER OF TOPANGA AND LASSEN,Monday 07:30 AM-07:30 PM Tuesday 07:30 AM-07:30 PM Wednesday 07:30 AM-07:30 PM Thursday 07:30 AM-07:30 PM Friday 07:30 AM-07:30 PM Saturday 09:00 AM-05:00 PM,34.2486733,-118.6056886
470,14027 MEMORIAL DR,HOUSTON,TX,77079-6826,(281)589-2074,(281)589-2076,store0470@theupsstore.com,CORNER OF MEMORIAL & KIRKWOOD (SW CORNER), Monday 08:00 AM-07:00 PM Tuesday 08:00 AM-07:00 PM Wednesday 08:00 AM-07:00 PM Thursday 08:00 AM-07:00 PM Friday 08:00 AM-07:00 PM Saturday 09:00 AM-04:00 PM ,29.7699739,-95.5909187
472,"6 UNIVERSITY DR, STE 206",AMHERST,MA,01002-3820,(413)549-1070,(413)549-6401,store0472@theupsstore.com,IN NEWMARKET CENTER, Monday 08:30 AM-06:30 PM Tuesday 08:30 AM-06:30 PM Wednesday 08:30 AM-06:30 PM Thursday 08:30 AM-06:30 PM Friday 08:30 AM-06:30 PM Saturday 09:00 AM-05:00 PM ,42.37244,-72.532811
473,4737 S HWY 101,MINNETONKA,MN,55345-2634,(952)935-9824,(952)935-9788,store0473@theupsstore.com,"HWY 7 & COUNTY RD 101, IN THE WESTWIND PLAZA NEXT TO CUB FOODS", Monday 08:30 AM-07:00 PM Tuesday 08:30 AM-07:00 PM Wednesday 08:30 AM-07:00 PM Thursday 08:30 AM-07:00 PM Friday 08:30 AM-06:00 PM Saturday 09:00 AM-05:00 PM ,44.9163337,-93.5030092
475,405 WESTERN AVE PO BOX 9421,SOUTH PORTLAND,ME,04116-9421, (207)871-9355,(207)871-0186,store0475@theupsstore.com,JETPORT PLAZA NEXT TO BURLINGTON COAT FACTORY,Monday 07:30 AM-06:30 PM Tuesday 07:30 AM-06:30 PM Wednesday 07:30 AM-06:30 PM Thursday 07:30 AM-06:30 PM Friday 07:30 AM-06:30 PM Saturday 10:00 AM-04:00 PM,43.6419774,-70.3286333
476,849 E STANLEY BLVD,LIVERMORE,CA,94550-4008, (925)449-7763,(925)449-4647,store0476@theupsstore.com,NOB HILL SHOPPING CENTER AT MURRIETA & STANLEY BLVD,Monday 08:30 AM-06:30 PM Tuesday 08:30 AM-06:30 PM Wednesday 08:30 AM-06:30 PM Thursday 08:30 AM-06:30 PM Friday 08:30 AM-06:30 PM Saturday 09:00 AM-05:00 PM,37.6781084,-121.7863275
478,"11006 VEIRSMILL RD, STE L-15",WHEATON,MD,20902, (301)942-6245,(301)942-2083,store0478@theupsstore.com,WHEATON PLAZA- 3 DOORS FROM CIRCUIT CITY - WESTFIELD SHOPPINGTOWN,Monday 9:00 AM-7:00 PM Tuesday 9:00 AM-7:00 PM Wednesday 9:00 AM-7:00 PM Thursday 9:00 AM-7:00 PM Friday 9:00 AM-7:00 PM Saturday 9:00 AM-4:00 PM,39.035528,-77.051373
480,4410 MASSACHUSETTS AVE NW,WASHINGTON,DC,20016-5572, (202)885-2030,(202)686-2828,store0480@theupsstore.com,ON THE AMERICAN UNIVERSITY CAMPUS,Monday 7:30 AM-6:00 PM Tuesday 7:30 AM-6:00 PM Wednesday 7:30 AM-6:00 PM Thursday 7:30 AM-6:00 PM Friday 7:30 AM-6:00 PM Saturday 11:00 AM-5:00 PM,38.9383079,-77.0863424
484,13335 FIFTEEN MILE ROAD,STERLING HEIGHTS,MI,48312-4271,(586)939-7777,(586)939-8105,store0484@theupsstore.com,NORTHWEST CORNER OF 15 MILE ROAD AND SCHOENHERR, Monday 9:00 AM-7:00 PM Tuesday 9:00 AM-7:00 PM Wednesday 9:00 AM-7:00 PM Thursday 9:00 AM-7:00 PM Friday 9:00 AM-6:30 PM Saturday 10:00 AM-3:00 PM ,42.552138,-82.9936678
485,"5114 PT FOSDICK DRIVE NW, STE E",GIG HARBOR,WA,98335-1733,(253)851-5104,(253)851-2241,store0485@theupsstore.com,OLYMPIC PLAZA NEAR DAIRY QUEEN & PAPA MURPHY'S, Monday 8:00 AM-7:00 PM Tuesday 8:00 AM-7:00 PM Wednesday 8:00 AM-7:00 PM Thursday 8:00 AM-7:00 PM Friday 8:00 AM-7:00 PM Saturday 9:00 AM-4:00 PM ,47.304771,-122.580578
486,"5000 WEST ESPLANADE, STE A",METAIRIE,LA,70006,(504)454-5007,(504)888-9517,store0486@theupsstore.com,CORNER OF WEST ESPLANADE FOR OVER 22 YEARS. NEXT TO CVS DRUGSTORE, Monday 08:30 AM-06:00 PM Tuesday 08:30 AM-06:00 PM Wednesday 08:30 AM-06:00 PM Thursday 08:30 AM-06:00 PM Friday 08:30 AM-06:00 PM Saturday 09:00 AM-02:00 PM ,30.0167491,-90.198984
487,8306 MILLS DR,MIAMI,FL,33183-4838,(305)595-8577,(305)595-2569,store0487@theupsstore.com,"TOWN & COUNTRY MALL, KENDALL", Monday 9:00 AM-7:30 PM Tuesday 9:00 AM-7:30 PM Wednesday 9:00 AM-7:30 PM Thursday 9:00 AM-7:30 PM Friday 9:00 AM-7:30 PM Saturday 9:30 AM-5:00 PM ,25.6908776,-80.3838358
488,"20423 STATE RD 7, #F6",BOCA RATON,FL,33498-6747, (561)451-9070,(561)451-9072,store0488@theupsstore.com,MISSION BAY PLAZA BETWEEN ALBERTSON'S AND TOYS'R'US,Monday 8:30 AM-7:00 PM Tuesday 8:30 AM-7:00 PM Wednesday 8:30 AM-7:00 PM Thursday 8:30 AM-7:00 PM Friday 8:30 AM-7:00 PM Saturday 10:00 AM-4:00 PM,26.370543,-80.203655
494,733 TURNPIKE ST,NORTH ANDOVER,MA,01845-6157,(978)689-4620,(978)794-0342,store0494@theupsstore.com,NEXT TO STOP & SHOP IN JASMINE PLAZA ON ROUTE 114, Monday 8:00 AM-6:00 PM Tuesday 8:00 AM-6:00 PM Wednesday 8:00 AM-6:00 PM Thursday 8:00 AM-6:00 PM Friday 8:00 AM-6:00 PM Saturday 8:00 AM-4:00 PM ,42.660507,-71.1085422
497,"9155 DYER ST, STE B-80",EL PASO,TX,79924-6424,(915)751-3334,(915)751-4537,store0497@theupsstore.com,BETWEEN MEDIA EXCHANGE AND LITTLE CAESARS, Monday 8:00 AM-6:30 PM Tuesday 8:00 AM-6:30 PM Wednesday 8:00 AM-6:30 PM Thursday 8:00 AM-6:30 PM Friday 8:00 AM-6:30 PM Saturday 9:00 AM-2:30 PM ,31.872695,-106.427339
499,4255 SOUTH BUCKLEY ROAD,AURORA,CO,80013,(303)690-2424,(303)699-1538,store0499@theupsstore.com,CORNER OF BUCKLEY & EAST QUINCY AVE IN KING SCOOPER SHOPPING CTR, Monday 8:00 AM-7:00 PM Tuesday 8:00 AM-7:00 PM Wednesday 8:00 AM-7:00 PM Thursday 8:00 AM-7:00 PM Friday 8:00 AM-7:00 PM Saturday 9:00 AM-5:00 PM ,39.6395264,-104.7915949
501,12819 SE 38TH ST,BELLEVUE,WA,98006, (425)562-0311,(425)562-6673,store0501@theupsstore.com,FACTORIA AREA ACROSS FROM BANK OF AMERICA,Monday 08:00 AM-07:00 PM Tuesday 08:00 AM-07:00 PM Wednesday 08:00 AM-07:00 PM Thursday 08:00 AM-07:00 PM Friday 08:00 AM-07:00 PM Saturday 09:00 AM-05:00 PM,47.5760069,-122.1684016
503,"4450 CALIFORNIA AVE, STE K",BAKERSFIELD,CA,93309-1196,(661)325-9050,(661)325-9075,store0503@theupsstore.com,MERVYN'S SHOPPING CENTER AT CALIFORNIA AVENUE AND MERVYNS PLACE, Monday 8:30 AM-6:00 PM Tuesday 8:30 AM-6:00 PM Wednesday 8:30 AM-6:00 PM Thursday 8:30 AM-6:00 PM Friday 8:30 AM-6:00 PM Saturday 9:00 AM-4:00 PM ,35.367119,-119.052076
504,1643 WARWICK AVE,WARWICK,RI,02889-1525, (401)738-4612,(401)732-6310,store0504@theupsstore.com,GATEWAY PLAZA IN THE CORNER OF AIRPORT RD & WARWICK AVE.,Monday 09:00 AM-07:00 PM Tuesday 09:00 AM-07:00 PM Wednesday 09:00 AM-07:00 PM Thursday 09:00 AM-07:00 PM Friday 09:00 AM-07:00 PM Saturday 09:00 AM-05:00 PM,41.731592,-71.407148
506,"2800 OLD DAWSON RD, STE 2",ALBANY,GA,31707-1589,(229)434-1133,(229)434-1135,store0506@theupsstore.com,WINN-DIXIE SHOPPING CENTER, Monday 08:00 AM-06:30 PM Tuesday 08:00 AM-06:30 PM Wednesday 08:00 AM-06:30 PM Thursday 08:00 AM-06:30 PM Friday 08:00 AM-06:30 PM Saturday 09:00 AM-03:00 PM ,31.6126,-84.217299
507,1977 N OLDEN AVE EXT,TRENTON,NJ,08618,(609)530-1010,(609)530-0660,store0507@theupsstore.com,NORTH OLDEN CORNER OF PARKWAY, Monday 08:00 AM-06:30 PM Tuesday 08:00 AM-06:30 PM Wednesday 08:00 AM-06:30 PM Thursday 08:00 AM-06:30 PM Friday 08:00 AM-06:30 PM Saturday 09:00 AM-04:00 PM ,40.250033,-74.780783
509,131 DANIEL WEBSTER HWY,NASHUA,NH,03060-5224,(603)891-0120,(603)891-0230,store0509@theupsstore.com,NEXT TO PEOPLES BANK & WENDY'S - DOWN THE HILL FROM BJS AND LOWES, Monday 8:30 AM-6:30 PM Tuesday 8:30 AM-6:30 PM Wednesday 8:30 AM-6:30 PM Thursday 8:30 AM-6:30 PM Friday 8:30 AM-6:30 PM Saturday 9:00 AM-5:00 PM ,42.7272176,-71.4472405
511,1555 SHERMAN,EVANSTON,IL,60201,(847)869-3000,(847)869-0312,store0511@theupsstore.com,DOWNTOWN EVANSTON JUST NORTH OF GROVE STREET, Monday 8:30 AM-6:00 PM Tuesday 8:30 AM-6:00 PM Wednesday 8:30 AM-6:00 PM Thursday 8:30 AM-6:00 PM Friday 8:30 AM-6:00 PM Saturday 10:00 AM-5:00 PM Sunday 12:00 PM-4:00 PM ,42.045678,-87.681753
513,1223 WILSHIRE BLVD,SANTA MONICA,CA,90403-5400,(310) 458-6878,(310) 451-5921,store0513@theupsstore.com,BETWEEN 12TH AND EUCLID NEXT TO THE POST OFFICE, Monday 09:00 AM-06:00 PM Tuesday 09:00 AM-06:00 PM Wednesday 09:00 AM-06:00 PM Thursday 09:00 AM-06:00 PM Friday 09:00 AM-06:00 PM Saturday 10:00 AM-04:00 PM ,34.025656,-118.49039
514,13337 SOUTH ST,CERRITOS,CA,90703-7300, (562)924-8822,(562)924-7206,store0514@theupsstore.com,CERRITOS SHOPPING CENTER AT SOUTH AND CARMENITA,Monday 08:30 AM-06:30 PM Tuesday 08:30 AM-06:30 PM Wednesday 08:30 AM-06:30 PM Thursday 08:30 AM-06:30 PM Friday 08:30 AM-06:30 PM Saturday 08:30 AM-04:30 PM,33.8587604,-118.047158
515,"217 E 86 ST, STE 186",NEW YORK,NY,10028-3617, (212)996-7900,(212)996-9003,store0515@theupsstore.com,NORTH SIDE OF STREET BETWEEN 2ND AND 3RD,Monday 08:30 AM-07:00 PM Tuesday 08:30 AM-07:00 PM Wednesday 08:30 AM-07:00 PM Thursday 08:30 AM-07:00 PM Friday 08:30 AM-06:00 PM Saturday 10:00 AM-05:00 PM Sunday 12:00 PM-05:00 PM,40.7785918,-73.9530313
516,"2160 E FRY BLVD, STE C-5",SIERRA VISTA,AZ,85635-2736, (520)459-6996,(520)459-7130,store0516@theupsstore.com,NEXT TO SAFEWAY SUPERMARKET,Monday 8:30 AM-6:30 PM Tuesday 8:30 AM-6:30 PM Wednesday 8:30 AM-6:30 PM Thursday 8:30 AM-6:30 PM Friday 8:30 AM-6:30 PM Saturday 9:30 AM-5:30 PM,31.5545883,-110.2765121
517,9737 NW 41ST ST,MIAMI,FL,33178, (305)594-1190,(305)594-4458,store0517@theupsstore.com,DORAL PLAZA - BETWEEN PUBLIX AND RADIOSHACK,Monday 8:00 AM-7:00 PM Tuesday 8:00 AM-7:00 PM Wednesday 8:00 AM-7:00 PM Thursday 8:00 AM-7:00 PM Friday 8:00 AM-7:00 PM Saturday 10:00 AM-3:00 PM,25.8117276,-80.3541815
518,344 MAPLE AVE W,VIENNA,VA,22180-5612,(703)255-3600,(703)255-3602,store0518@theupsstore.com,JADES SHOPPING CENTER ON 123 BETWEEN NUTLEY AND LAWYERS, Monday 9:00 AM-7:00 PM Tuesday 9:00 AM-7:00 PM Wednesday 9:00 AM-7:00 PM Thursday 9:00 AM-7:00 PM Friday 9:00 AM-7:00 PM Saturday 9:00 AM-5:00 PM ,38.8971277,-77.2707876
519,"40 W LITTLETON BLVD, STE 210",LITTLETON,CO,80120-2400,(303)797-1400,(303)797-1488,store0519@theupsstore.com,LITTLETON SQUARE AT CORNER OF LITTLETON AND BROADWAY, Monday 8:00 AM-6:00 PM Tuesday 8:00 AM-6:00 PM Wednesday 8:00 AM-6:00 PM Thursday 8:00 AM-6:00 PM Friday 8:00 AM-6:00 PM Saturday 8:00 AM-4:00 PM ,39.6131297,-104.9884898
520,4611 S UNIVERSITY,DAVIE,FL,33328-3817, (954)680-9904,(954)680-9906,store0520@theupsstore.com,CORNER OF UNIVERSITY & GRIFFIN INSIDE PUBLIX SHOPPING CENTER,Monday 8:30 AM-7:00 PM Tuesday 8:30 AM-7:00 PM Wednesday 8:30 AM-7:00 PM Thursday 8:30 AM-7:00 PM Friday 8:30 AM-7:00 PM Saturday 9:00 AM-5:00 PM,26.0640535,-80.252333
521,653 W 23RD ST,PANAMA CITY,FL,32405-3922,(850)784-4877,(850)784-1734,store0521@theupsstore.com,IN THE WAL-MART SHOPPING CTR ON 23RD STREET (PANAMA CITY SQUARE), Monday 8:00 AM-6:30 PM Tuesday 8:00 AM-6:30 PM Wednesday 8:00 AM-6:30 PM Thursday 8:00 AM-6:30 PM Friday 8:00 AM-6:30 PM Saturday 9:00 AM-2:30 PM ,30.1897213,-85.6697539
522,"2001 E. LOHMAN AVE, # 110",LAS CRUCES,NM,88001-3167, (575)523-0083,(575)523-9509,store0522@theupsstore.com,ARROYO PLAZA SHOPPING CENTER NEXT TO MESILLA VALLEY KITCHEN,Monday 08:00 AM-06:30 PM Tuesday 08:00 AM-06:30 PM Wednesday 08:00 AM-06:30 PM Thursday 08:00 AM-06:30 PM Friday 08:00 AM-06:00 PM Saturday 09:00 AM-03:00 PM,32.3116,-106.757
523,1202 LEXINGTON AVE,NEW YORK,NY,10028-1425, (212)439-6104,(212)439-6107,store0523@theupsstore.com,ON LEXINGTON BETWEEN 81ST AND 82ND,Monday 8:30 AM-7:00 PM Tuesday 8:30 AM-7:00 PM Wednesday 8:30 AM-7:00 PM Thursday 8:30 AM-7:00 PM Friday 8:30 AM-7:00 PM Saturday 10:00 AM-4:00 PM,40.776682,-73.957791
526,119 W 72ND ST,NEW YORK,NY,10023, (212)496-0216,(212)496-4170,store0526@theupsstore.com,,Monday 08:30 AM-07:00 PM Tuesday 08:30 AM-07:00 PM Wednesday 08:30 AM-07:00 PM Thursday 08:30 AM-07:00 PM Friday 08:30 AM-06:00 PM Saturday 10:00 AM-05:00 PM Sunday 12:00 PM-05:00 PM,40.7778566,-73.9794609
527,1866 E MARKET ST,HARRISONBURG,VA,22801-5102, (540)433-6245,(540)433-3643,store0527@theupsstore.com,MARKET PLACE SHOPPES,Monday 8:00 AM-6:00 PM Tuesday 8:00 AM-6:00 PM Wednesday 8:00 AM-6:00 PM Thursday 8:00 AM-6:00 PM Friday 8:00 AM-6:00 PM Saturday 9:00 AM-5:00 PM,38.429775,-78.84048
528,"3230 E FLAMINGO RD, STE 8",LAS VEGAS,NV,89121,(702)454-1700,(702)454-6525,store0528@theupsstore.com,RENAISSANCE SHOPPING CENTER - N.W. CORNER OF FLAMINGO AND PECOS, Monday 08:00 AM-06:00 PM Tuesday 08:00 AM-06:00 PM Wednesday 08:00 AM-06:00 PM Thursday 08:00 AM-06:00 PM Friday 08:00 AM-06:00 PM Saturday 09:00 AM-05:00 PM ,36.1152237,-115.1047289
529,4758 RIDGE RD,BROOKLYN,OH,44144-3327,(216)661-2232,(216)661-2234,store0529@theupsstore.com,RIDGE PARK SQUARE AT I-480 AND RIDGE ROAD, Monday 8:30 AM-7:00 PM Tuesday 8:30 AM-7:00 PM Wednesday 8:30 AM-7:00 PM Thursday 8:30 AM-7:00 PM Friday 8:30 AM-7:00 PM Saturday 9:00 AM-3:00 PM ,41.426213,-81.736591
530,1007 N FEDERAL HWY,FORT LAUDERDALE,FL,33304-1422,(954)764-6245,(954)764-6332,store0530@theupsstore.com,INTERSECTION OF SUNRISE BOULEVARD AND FEDERAL HIGHWAY, Monday 08:00 AM-06:30 PM Tuesday 08:00 AM-06:30 PM Wednesday 08:00 AM-06:30 PM Thursday 08:00 AM-06:30 PM Friday 08:00 AM-06:30 PM Saturday 09:00 AM-05:00 PM ,26.1376228,-80.1216386
532,4579 LACLEDE AVE,ST LOUIS,MO,63108,(314) 361-5505,(314) 361-5515,store0532@theupsstore.com,"ON LACLEDE, JUST EAST OF EUCLID AVE", Monday 08:00 AM-07:00 PM Tuesday 08:00 AM-07:00 PM Wednesday 08:00 AM-07:00 PM Thursday 08:00 AM-07:00 PM Friday 08:00 AM-07:00 PM Saturday 10:00 AM-05:00 PM ,38.640273,-90.2617096
533,"1296 E GIBSON RD, STE A",WOODLAND,CA,95776-6315,(530)668-0265,(530)668-0268,store0533@theupsstore.com,COUNTY FAIR MALL NORTHEAST CORNER, Monday 08:30 AM-06:30 PM Tuesday 08:30 AM-06:30 PM Wednesday 08:30 AM-06:30 PM Thursday 08:30 AM-06:30 PM Friday 08:30 AM-06:30 PM Saturday 09:00 AM-05:00 PM ,38.662401,-121.761287
534,2121 N FRONTAGE RD W,VAIL,CO,81657-4957,(970)476-3292,(970)476-0373,store0534@theupsstore.com,NEXT TO SAFEWAY IN WEST VAIL, Monday 08:30 AM-06:30 PM Tuesday 08:30 AM-06:30 PM Wednesday 08:30 AM-06:30 PM Thursday 08:30 AM-06:30 PM Friday 08:30 AM-06:30 PM Saturday 08:30 AM-04:30 PM ,39.643545,-106.303441
535,4401-A CONNECTICUT AVE NW,WASHINGTON,DC,20008,(202)244-7299,(202)244-7875,store0535@theupsstore.com,UPPER NORTHWEST ACROSS THE STREET FROM THE UNIVERSITY OF DC, Monday 8:30 AM-7:00 PM Tuesday 8:30 AM-7:00 PM Wednesday 8:30 AM-7:00 PM Thursday 8:30 AM-7:00 PM Friday 8:30 AM-7:00 PM Saturday 10:00 AM-5:00 PM ,38.9453843,-77.0640206
538,1436 ALTAMONT AVE,SCHENECTADY,NY,12303, (518)356-3406,(518)356-3408,store0538@theupsstore.com,SHOP & SAVE PLAZA AT END OF CRANE STREET ON ALTAMONT AVENUE,Monday 08:30 AM-07:00 PM Tuesday 08:30 AM-07:00 PM Wednesday 08:30 AM-07:00 PM Thursday 08:30 AM-07:00 PM Friday 08:30 AM-07:00 PM Saturday 09:00 AM-03:00 PM,42.7849369,-73.9451069
539,980 BROADWAY,THORNWOOD,NY,10594-1139, (914)747-3700,(914)747-9223,store0539@theupsstore.com,TOWN CENTER MALL ON MAIN STRIP,Monday 8:00 AM-6:00 PM Tuesday 8:00 AM-6:00 PM Wednesday 8:00 AM-6:00 PM Thursday 8:00 AM-6:00 PM Friday 8:00 AM-6:00 PM Saturday 8:00 AM-4:00 PM,41.1252754,-73.7803551
542,76 CRANBROOK RD,COCKEYSVILLE,MD,21030-3404,(410)683-1303,(410)683-1319,store0542@theupsstore.com,YORKTOWNE PLAZA SHOPPING CENTER OFF YORK ROAD, Monday 8:30 AM-6:30 PM Tuesday 8:30 AM-6:30 PM Wednesday 8:30 AM-6:30 PM Thursday 8:30 AM-6:30 PM Friday 8:30 AM-6:30 PM Saturday 9:00 AM-5:00 PM ,39.4637789,-76.6347501
544,4423 LEHIGH RD,COLLEGE PARK,MD,20740, (301)699-0191,(301)699-0193,store0544@theupsstore.com,CORNER OF UNIVERSITY OF MARYLAND CAMPUS DIRECTLY OFF ROUTE 1,Monday 09:00 AM-07:00 PM Tuesday 09:00 AM-07:00 PM Wednesday 09:00 AM-07:00 PM Thursday 09:00 AM-07:00 PM Friday 09:00 AM-07:00 PM Saturday 10:00 AM-04:00 PM,38.981447,-76.93881
546,182 HOWARD ST,SAN FRANCISCO,CA,94105,(415)495-6963,(415)495-6956,store0546@theupsstore.com,LOCATED ON HOWARD BETWEEN MAIN & SPEAR NEAR THE RINCON CENTER, Monday 8:00 AM-6:30 PM Tuesday 8:00 AM-6:30 PM Wednesday 8:00 AM-6:30 PM Thursday 8:00 AM-6:30 PM Friday 8:00 AM-6:30 PM Saturday 10:00 AM-4:00 PM ,37.7909841,-122.3932245
547,"306 W EL NORTE PKWY, STE N",ESCONDIDO,CA,92026, (760)746-3388,(760)746-1197,store0547@theupsstore.com,VONS SHOPPING CENTER AT CENTRE CITY AND EL NORTE BY DAIRY QUEEN,Monday 8:30 AM-6:00 PM Tuesday 8:30 AM-6:00 PM Wednesday 8:30 AM-6:00 PM Thursday 8:30 AM-6:00 PM Friday 8:30 AM-6:00 PM Saturday 9:00 AM-4:00 PM,33.1412067,-117.0946485
549,5030 CHAMPION BLVD,BOCA RATON,FL,33496-2473, (561)997-0557,(561)997-0559,store0549@theupsstore.com,POLO CLUB SHOPS AT MILITARY AND CLINT MOORE NEXT DOOR TO TOOJAYS,Monday 8:00 AM-6:30 PM Tuesday 8:00 AM-6:30 PM Wednesday 8:00 AM-6:30 PM Thursday 8:00 AM-6:30 PM Friday 8:00 AM-6:30 PM Saturday 9:30 AM-3:30 PM,26.41182,-80.122936
550,"3972 BARRANCA PKWY, STE J",IRVINE,CA,92606-8291,(949)857-0441,(949)857-1637,store0550@theupsstore.com,CROSSWOOD SHOPPING CENTER AT CORNER OF CULVER AND BARRANCA, Monday 08:30 AM-06:30 PM Tuesday 08:30 AM-06:30 PM Wednesday 08:30 AM-06:30 PM Thursday 08:30 AM-06:30 PM Friday 08:30 AM-06:30 PM Saturday 09:00 AM-05:00 PM ,33.684892,-117.810566
555,2034 E LINCOLN AVE,ANAHEIM,CA,92806-4101,(714)635-0724,(714)635-8904,store0555@theupsstore.com,ANAHEIM TOWN SQUARE NEXT TO RALPHS AT STATE COLLEGE AND LINCOLN, Monday 08:30 AM-07:00 PM Tuesday 08:30 AM-07:00 PM Wednesday 08:30 AM-07:00 PM Thursday 08:30 AM-07:00 PM Friday 08:30 AM-07:00 PM Saturday 09:00 AM-05:00 PM ,33.839747,-117.8883577
